[
 {  }
,
{
    "lat": 47.2129486,
    "lon": 39.7104697,
    "tags": {
        "amenity": "ferry_terminal"
    }
}
,
{
    "lat": 47.2388683,
    "lon": 39.8114854,
    "tags": {
        "addr:street": "проспект 40-летия Победы",
        "amenity": "post_office",
        "contact:website": "https://www.pochta.ru",
        "name": "Ростов-на-Дону 344072",
        "opening_hours": "Mo-Fr 08:00-13:00,14:00-20:00; Sa 09:00-13:00,14:00-18:00; Su off",
        "website": "https://www.pochta.ru/"
    }
}
,
{
    "lat": 47.2285208,
    "lon": 39.7523618,
    "tags": {
        "amenity": "bank",
        "contact:website": "https://www.sberbank.ru",
        "name": "Сбербанк",
        "opening_hours": "Mo-Fr 08:00-18:30; Sa 08:00-16:30"
    }
}
,
{
    "lat": 47.268071,
    "lon": 39.8199159,
    "tags": {
        "amenity": "fuel",
        "name": "АЗС-35"
    }
}
,
{
    "lat": 47.2185622,
    "lon": 39.733152,
    "tags": {
        "addr:street": "Береговая улица",
        "amenity": "restaurant",
        "name": "Пирс"
    }
}
,
{
    "lat": 47.2568439,
    "lon": 39.793861,
    "tags": {
        "addr:street": "Российская улица",
        "amenity": "fuel"
    }
}
,
{
    "lat": 47.2475102,
    "lon": 39.7779394,
    "tags": {
        "addr:street": "улица Коммунаров",
        "amenity": "post_office",
        "contact:website": "https://www.pochta.ru",
        "name": "Ростов-на-Дону 344030",
        "opening_hours": "Mo-Fr 08:00-13:00,14:00-20:00; Sa 09:00-13:00,14:00-18:00; Su off",
        "website": "https://www.pochta.ru/"
    }
}
,
{
    "lat": 47.2321202,
    "lon": 39.7616967,
    "tags": {
        "amenity": "fast_food",
        "name": "Вкуснолюбов"
    }
}
,
{
    "lat": 47.233152,
    "lon": 39.7169859,
    "tags": {
        "amenity": "fast_food",
        "name": "Вкуснолюбов"
    }
}
,
{
    "lat": 47.2160062,
    "lon": 39.7090677,
    "tags": {
        "amenity": "restaurant",
        "name": "Пивная Библиотека"
    }
}
,
{
    "lat": 47.2130731,
    "lon": 39.7410987,
    "tags": {
        "amenity": "restaurant",
        "name": "Облико Морале"
    }
}
,
{
    "lat": 47.2601026,
    "lon": 39.6902592,
    "tags": {
        "amenity": "pharmacy",
        "name": "Три фарма"
    }
}
,
{
    "lat": 47.2595641,
    "lon": 39.6911414,
    "tags": {
        "amenity": "pharmacy",
        "name": "Коммерсант"
    }
}
,
{
    "lat": 47.258912,
    "lon": 39.7035788,
    "tags": {
        "amenity": "place_of_worship",
        "name": "Римско-католическая церковь"
    }
}
,
{
    "lat": 47.2199318,
    "lon": 39.7186766,
    "tags": {
        "addr:street": "Темерницкая улица",
        "amenity": "restaurant",
        "name": "Бирхоф",
        "opening_hours": "Mo-Tu 14:00-02:00; Fr-Sa 14:00-04:00; Su 14:00-02:00",
        "phone": "+7 863 2625623",
        "website": "http://beerhof.ru/"
    }
}
,
{
    "lat": 47.2084992,
    "lon": 39.6390285,
    "tags": {
        "amenity": "library",
        "name": "Городская детская библиотека"
    }
}
,
{
    "lat": 47.2116867,
    "lon": 39.6445304,
    "tags": {
        "addr:street": "проспект Стачки",
        "amenity": "post_office",
        "contact:website": "https://www.pochta.ru",
        "name": "Ростов-на-Дону 344058",
        "opening_hours": "Mo-Fr 08:00-13:00,14:00-20:00; Sa 09:00-13:00,14:00-18:00; Su off",
        "website": "https://www.pochta.ru/"
    }
}
,
{
    "lat": 47.2082224,
    "lon": 39.6258528,
    "tags": {
        "amenity": "fountain"
    }
}
,
{
    "lat": 47.2075644,
    "lon": 39.6312045,
    "tags": {
        "addr:street": "Коммунистический проспект",
        "amenity": "bank",
        "contact:website": "https://www.sberbank.ru",
        "name": "Сбербанк",
        "opening_hours": "Mo-Fr 08:00-19:00; Sa 08:00-16:00"
    }
}
,
{
    "lat": 47.2075805,
    "lon": 39.6325916,
    "tags": {
        "amenity": "bank",
        "name": "Райффайзен Банк",
        "website": "https://www.raiffeisen.ru/"
    }
}
,
{
    "lat": 47.207559,
    "lon": 39.6314797,
    "tags": {
        "amenity": "atm",
        "name": "Центр-инвест"
    }
}
,
{
    "lat": 47.2058368,
    "lon": 39.6333793,
    "tags": {
        "amenity": "fountain"
    }
}
,
{
    "lat": 47.213543,
    "lon": 39.634167,
    "tags": {
        "amenity": "fuel",
        "name": "Авалон"
    }
}
,
{
    "lat": 47.2116151,
    "lon": 39.6470432,
    "tags": {
        "amenity": "fuel"
    }
}
,
{
    "lat": 47.2279854,
    "lon": 39.6467713,
    "tags": {
        "amenity": "fuel",
        "name": "Роснефть"
    }
}
,
{
    "lat": 47.2228678,
    "lon": 39.6545756,
    "tags": {
        "amenity": "fuel",
        "name": "ТНК"
    }
}
,
{
    "lat": 47.2115473,
    "lon": 39.614221,
    "tags": {
        "addr:street": "улица Малиновского",
        "amenity": "fuel",
        "name": "Роснефть",
        "opening_hours": "24/7",
        "shop": "yes",
        "website": "https://www.rosneft.ru/"
    }
}
,
{
    "lat": 47.2939637,
    "lon": 39.7144372,
    "tags": {
        "amenity": "pharmacy",
        "name": "Аптека \"Нектар\""
    }
}
,
{
    "lat": 47.2955701,
    "lon": 39.703984,
    "tags": {
        "amenity": "bank",
        "contact:website": "https://www.sberbank.ru",
        "name": "Сбербанк",
        "website": "https://www.sberbank.ru/"
    }
}
,
{
    "lat": 47.2926229,
    "lon": 39.7147024,
    "tags": {
        "addr:street": "проспект Космонавтов",
        "amenity": "post_office",
        "contact:website": "https://www.pochta.ru",
        "name": "Ростов-на-Дону 344113",
        "opening_hours": "Mo-Fr 08:00-13:00,14:00-20:00; Sa 09:00-13:00,14:00-18:00; Su off",
        "website": "https://www.pochta.ru/"
    }
}
,
{
    "lat": 47.2079465,
    "lon": 39.6192362,
    "tags": {
        "amenity": "dentist"
    }
}
,
{
    "lat": 47.2079387,
    "lon": 39.6187703,
    "tags": {
        "amenity": "cafe",
        "name": "Золотой Колос"
    }
}
,
{
    "lat": 47.2079945,
    "lon": 39.6211607,
    "tags": {
        "addr:street": "Коммунистический проспект",
        "amenity": "clinic",
        "name": "Детский неврологический центр \"Авиценна\"",
        "opening_hours": "Mo-Fr 08:00-20:00; Sa 08:00-18:00",
        "website": "http://www.avicenna-rostov.ru/"
    }
}
,
{
    "lat": 47.2080265,
    "lon": 39.6208395,
    "tags": {
        "amenity": "pharmacy",
        "name": "Просто Аптека"
    }
}
,
{
    "lat": 47.2080367,
    "lon": 39.6152163,
    "tags": {
        "addr:street": "Коммунистический проспект",
        "amenity": "bank",
        "name": "Донкомбанк",
        "opening_hours": "Mo-Fr 09:00-13:00,14:00-19:00; Su 09:00-13:00,14:00-16:00"
    }
}
,
{
    "lat": 47.2073276,
    "lon": 39.6185036,
    "tags": {
        "amenity": "pharmacy",
        "name": "Донская Аптека"
    }
}
,
{
    "lat": 47.207962,
    "lon": 39.6182648,
    "tags": {
        "amenity": "pharmacy",
        "name": "Эко"
    }
}
,
{
    "lat": 47.2076156,
    "lon": 39.6349387,
    "tags": {
        "amenity": "pharmacy",
        "name": "Просто Аптека"
    }
}
,
{
    "lat": 47.2355715,
    "lon": 39.7120758,
    "tags": {
        "amenity": "doctors",
        "name": "Поликлиника"
    }
}
,
{
    "lat": 47.260527,
    "lon": 39.7213955,
    "tags": {
        "amenity": "cinema",
        "name": "Киномакс-Дон",
        "website": "https://kinomax.ru/"
    }
}
,
{
    "lat": 47.2590104,
    "lon": 39.7194827,
    "tags": {
        "amenity": "cafe"
    }
}
,
{
    "lat": 47.2315822,
    "lon": 39.7143851,
    "tags": {
        "amenity": "restaurant",
        "name": "Пить кофе"
    }
}
,
{
    "lat": 47.2343746,
    "lon": 39.7132189,
    "tags": {
        "amenity": "fast_food"
    }
}
,
{
    "lat": 47.2353431,
    "lon": 39.7128268,
    "tags": {
        "amenity": "fast_food"
    }
}
,
{
    "lat": 47.2072434,
    "lon": 39.6156519,
    "tags": {
        "amenity": "pharmacy"
    }
}
,
{
    "lat": 47.206778,
    "lon": 39.622041,
    "tags": {
        "amenity": "pharmacy"
    }
}
,
{
    "lat": 47.2076263,
    "lon": 39.6268422,
    "tags": {
        "amenity": "pharmacy",
        "name": "Радуга",
        "opening_hours": "Mo-Su 08:00-21:00",
        "phone": "+7-863-2247350"
    }
}
,
{
    "lat": 47.2085029,
    "lon": 39.6297354,
    "tags": {
        "amenity": "pharmacy"
    }
}
,
{
    "lat": 47.2349108,
    "lon": 39.7130222,
    "tags": {
        "addr:street": "Ворошиловский проспект",
        "amenity": "fast_food",
        "name": "Шаурма Маркет"
    }
}
,
{
    "lat": 47.2340166,
    "lon": 39.7133467,
    "tags": {
        "amenity": "cafe"
    }
}
,
{
    "lat": 47.2335668,
    "lon": 39.7135399,
    "tags": {
        "amenity": "cafe"
    }
}
,
{
    "lat": 47.2334038,
    "lon": 39.7096628,
    "tags": {
        "amenity": "hospital",
        "name": "Больница скорой медицинской помощи"
    }
}
,
{
    "lat": 47.2337316,
    "lon": 39.7130424,
    "tags": {
        "amenity": "hospital",
        "name": "Родильное отделение"
    }
}
,
{
    "lat": 47.2113763,
    "lon": 39.6448131,
    "tags": {
        "amenity": "pharmacy"
    }
}
,
{
    "lat": 47.2408702,
    "lon": 39.6404469,
    "tags": {
        "amenity": "fuel",
        "name": "Ростнефть"
    }
}
,
{
    "lat": 47.207281,
    "lon": 39.6175683,
    "tags": {
        "amenity": "cafe",
        "name": "Тройка"
    }
}
,
{
    "lat": 47.2671067,
    "lon": 39.7875866,
    "tags": {
        "amenity": "marketplace",
        "name": "Рынок \"УЮТ\""
    }
}
,
{
    "lat": 47.2190536,
    "lon": 39.6911844,
    "tags": {
        "amenity": "taxi"
    }
}
,
{
    "lat": 47.224142,
    "lon": 39.7123784,
    "tags": {
        "amenity": "library",
        "name": "Библиотека ЮРИФ РАНХиГС",
        "phone": "299-92-39"
    }
}
,
{
    "lat": 47.2232482,
    "lon": 39.7179951,
    "tags": {
        "amenity": "library",
        "name": "Библиотека РГЭУ \"РИНХ\""
    }
}
,
{
    "lat": 47.2375609,
    "lon": 39.7116713,
    "tags": {
        "amenity": "library",
        "name": "Научно-техническая библиотека ДГТУ"
    }
}
,
{
    "lat": 47.2245897,
    "lon": 39.7325855,
    "tags": {
        "addr:street": "Большая Садовая улица",
        "amenity": "theatre",
        "name": "Ростовский государственный музыкальный театр",
        "opening_hours": "Tu-Su 10:00-19:00",
        "phone": "+7 863 264-07-07",
        "website": "https://rostovopera.ru/"
    }
}
,
{
    "lat": 47.242331,
    "lon": 39.7128103,
    "tags": {
        "addr:street": "проспект Михаила Нагибина",
        "amenity": "fuel",
        "name": "Роснефть",
        "website": "https://www.rosneft.ru/"
    }
}
,
{
    "lat": 47.2577649,
    "lon": 39.7171229,
    "tags": {
        "amenity": "fuel",
        "name": "ТНК"
    }
}
,
{
    "lat": 47.2725705,
    "lon": 39.7212441,
    "tags": {
        "amenity": "car_wash"
    }
}
,
{
    "lat": 47.2953032,
    "lon": 39.7152388,
    "tags": {
        "amenity": "pub",
        "name": "закусочная Мираж"
    }
}
,
{
    "lat": 47.2947932,
    "lon": 39.7157801,
    "tags": {
        "amenity": "toilets"
    }
}
,
{
    "lat": 47.211509,
    "lon": 39.7543096,
    "tags": {
        "addr:street": "Левобережная улица",
        "amenity": "restaurant",
        "name": "Старая Мельница",
        "phone": "+7-863-280-01-96"
    }
}
,
{
    "lat": 47.2108968,
    "lon": 39.7523891,
    "tags": {
        "addr:street": "Левобережная улица",
        "amenity": "restaurant",
        "name": "Станица Черкасская",
        "phone": "+7-863-280-01-94",
        "tourism": "yes"
    }
}
,
{
    "lat": 47.231263,
    "lon": 39.7256031,
    "tags": {
        "amenity": "pharmacy"
    }
}
,
{
    "lat": 47.2347083,
    "lon": 39.7260648,
    "tags": {
        "amenity": "waste_disposal"
    }
}
,
{
    "lat": 47.2105471,
    "lon": 39.6719868,
    "tags": {
        "amenity": "cinema",
        "name": "Чарли",
        "website": "http://www.kinocharly.ru/?city=1"
    }
}
,
{
    "lat": 47.2206519,
    "lon": 39.7138704,
    "tags": {
        "amenity": "nightclub",
        "name": "Фемели",
        "phone": "240-89-83"
    }
}
,
{
    "lat": 47.2069739,
    "lon": 39.6299663,
    "tags": {
        "amenity": "pharmacy"
    }
}
,
{
    "lat": 47.213569,
    "lon": 39.6292854,
    "tags": {
        "amenity": "car_wash"
    }
}
,
{
    "lat": 47.2129176,
    "lon": 39.6285319,
    "tags": {
        "amenity": "restaurant",
        "name": "Фрау Марта"
    }
}
,
{
    "lat": 47.2040435,
    "lon": 39.613014,
    "tags": {
        "amenity": "fuel"
    }
}
,
{
    "lat": 47.2257037,
    "lon": 39.6161294,
    "tags": {
        "amenity": "place_of_worship",
        "name": "Храм святого мученика Иоанна Воина"
    }
}
,
{
    "lat": 47.2158801,
    "lon": 39.6366746,
    "tags": {
        "addr:street": "улица Содружества",
        "amenity": "post_office",
        "contact:website": "https://www.pochta.ru",
        "name": "Ростов-на-Дону 344090",
        "opening_hours": "Mo-Fr 08:00-13:00,14:00-20:00; Sa 09:00-13:00,14:00-18:00; Su off",
        "website": "https://www.pochta.ru/"
    }
}
,
{
    "lat": 47.2647226,
    "lon": 39.6489065,
    "tags": {
        "amenity": "parking"
    }
}
,
{
    "lat": 47.2607544,
    "lon": 39.6466642,
    "tags": {
        "amenity": "hospital",
        "name": "Консультативно-диагностическая поликлиника"
    }
}
,
{
    "lat": 47.2581937,
    "lon": 39.6474675,
    "tags": {
        "amenity": "pharmacy",
        "name": "Пчёлка"
    }
}
,
{
    "lat": 47.2576598,
    "lon": 39.6464818,
    "tags": {
        "amenity": "pharmacy"
    }
}
,
{
    "lat": 47.2597933,
    "lon": 39.6519213,
    "tags": {
        "amenity": "restaurant"
    }
}
,
{
    "lat": 47.2593906,
    "lon": 39.6504101,
    "tags": {
        "amenity": "restaurant",
        "name": "Осака"
    }
}
,
{
    "lat": 47.2606379,
    "lon": 39.6510523,
    "tags": {
        "amenity": "cafe",
        "name": "Магнит",
        "shop": "supermarket"
    }
}
,
{
    "lat": 47.2254679,
    "lon": 39.6133025,
    "tags": {
        "amenity": "fuel"
    }
}
,
{
    "lat": 47.1874961,
    "lon": 39.6365068,
    "tags": {
        "addr:street": "Всесоюзная улица",
        "amenity": "fuel",
        "name": "Роснефть",
        "opening_hours": "24/7",
        "shop": "no",
        "website": "https://www.rosneft.ru/"
    }
}
,
{
    "lat": 47.2032742,
    "lon": 39.6212097,
    "tags": {
        "amenity": "library",
        "name": "Библиотека им. Герцена"
    }
}
,
{
    "lat": 47.295709,
    "lon": 39.7187781,
    "tags": {
        "amenity": "restaurant",
        "name": "Ресторан «Абажур»",
        "opening_hours": "10:00-02:00",
        "phone": "+7 (863) 279-19-64"
    }
}
,
{
    "lat": 47.212997,
    "lon": 39.694558,
    "tags": {
        "amenity": "fuel",
        "name": "Роснефть",
        "website": "https://www.rosneft.ru/"
    }
}
,
{
    "lat": 47.2138886,
    "lon": 39.6937058,
    "tags": {
        "addr:street": "улица Вагулевского",
        "amenity": "fuel",
        "name": "Роснефть",
        "website": "https://www.rosneft.ru/"
    }
}
,
{
    "lat": 47.2055365,
    "lon": 39.7261902,
    "tags": {
        "amenity": "fuel",
        "website": "https://www.rosneft.ru/"
    }
}
,
{
    "lat": 47.2175032,
    "lon": 39.7179507,
    "tags": {
        "addr:street": "Тургеневская улица",
        "amenity": "place_of_worship",
        "name": "Солдатская синагога"
    }
}
,
{
    "lat": 47.2607819,
    "lon": 39.6867639,
    "tags": {
        "amenity": "fuel"
    }
}
,
{
    "lat": 47.2609714,
    "lon": 39.6549394,
    "tags": {
        "amenity": "fuel",
        "name": "Башнефть"
    }
}
,
{
    "lat": 47.2185595,
    "lon": 39.6942381,
    "tags": {
        "amenity": "fuel",
        "name": "Роснефть",
        "website": "https://www.rosneft.ru/"
    }
}
,
{
    "lat": 47.2263499,
    "lon": 39.6142311,
    "tags": {
        "amenity": "fuel",
        "name": "Не работает",
        "website": "https://www.rosneft.ru/"
    }
}
,
{
    "lat": 47.2169712,
    "lon": 39.6972433,
    "tags": {
        "amenity": "fuel"
    }
}
,
{
    "lat": 47.2318468,
    "lon": 39.6128399,
    "tags": {
        "amenity": "fuel"
    }
}
,
{
    "lat": 47.2633781,
    "lon": 39.8118495,
    "tags": {
        "amenity": "fuel",
        "name": "АЗС \"Томск Нефть\""
    }
}
,
{
    "lat": 47.2582821,
    "lon": 39.8024419,
    "tags": {
        "addr:street": "проспект Шолохова",
        "amenity": "fuel",
        "name": "Роснефть",
        "opening_hours": "24/7",
        "shop": "yes",
        "website": "https://www.rosneft.ru/"
    }
}
,
{
    "lat": 47.2371583,
    "lon": 39.5902793,
    "tags": {
        "amenity": "fuel",
        "name": "Газпром"
    }
}
,
{
    "lat": 47.289519,
    "lon": 39.7058131,
    "tags": {
        "amenity": "pharmacy"
    }
}
,
{
    "lat": 47.2202965,
    "lon": 39.6324807,
    "tags": {
        "amenity": "pharmacy",
        "name": "Социальная Аптека",
        "opening_hours": "Mo-Su,PH 08:00-22:00"
    }
}
,
{
    "lat": 47.277531,
    "lon": 39.6964239,
    "tags": {
        "amenity": "waste_disposal"
    }
}
,
{
    "lat": 47.2257885,
    "lon": 39.7200199,
    "tags": {
        "amenity": "pub",
        "name": "Abbey Road",
        "opening_hours": "Mo-Fr 00:00-02:00,13:00-24:00; Sa 00:00-04:00,13:00-24:00; Su 00:00-04:00,14:00-24:00",
        "phone": "+7-863-2691081",
        "website": "http://abbeyroadpub.ru/"
    }
}
,
{
    "lat": 47.2255502,
    "lon": 39.7177578,
    "tags": {
        "amenity": "fast_food",
        "name": "Макдоналдс",
        "website": "https://mcdonalds.ru/"
    }
}
,
{
    "lat": 47.2357075,
    "lon": 39.7127801,
    "tags": {
        "amenity": "parking"
    }
}
,
{
    "lat": 47.2364375,
    "lon": 39.7129886,
    "tags": {
        "amenity": "parking"
    }
}
,
{
    "lat": 47.2369459,
    "lon": 39.715237,
    "tags": {
        "amenity": "parking"
    }
}
,
{
    "lat": 47.2379658,
    "lon": 39.7137564,
    "tags": {
        "amenity": "parking"
    }
}
,
{
    "lat": 47.238767,
    "lon": 39.712662,
    "tags": {
        "amenity": "parking"
    }
}
,
{
    "lat": 47.2199744,
    "lon": 39.7200314,
    "tags": {
        "amenity": "cafe",
        "name": "Вкуснолюбов"
    }
}
,
{
    "lat": 47.2567509,
    "lon": 39.6434832,
    "tags": {
        "amenity": "pub",
        "name": "Большая кружка",
        "opening_hours": "11:00-23:00"
    }
}
,
{
    "lat": 47.2565634,
    "lon": 39.6423842,
    "tags": {
        "amenity": "recycling",
        "opening_hours": "24/7"
    }
}
,
{
    "lat": 47.2594924,
    "lon": 39.6261133,
    "tags": {
        "amenity": "cafe"
    }
}
,
{
    "lat": 47.259405,
    "lon": 39.6265424,
    "tags": {
        "amenity": "bar"
    }
}
,
{
    "lat": 47.2575045,
    "lon": 39.6456076,
    "tags": {
        "amenity": "police"
    }
}
,
{
    "lat": 47.2323917,
    "lon": 39.7017806,
    "tags": {
        "amenity": "restaurant",
        "name": "Paris"
    }
}
,
{
    "lat": 47.2278668,
    "lon": 39.6971121,
    "tags": {
        "addr:street": "Халтуринский переулок",
        "amenity": "pub"
    }
}
,
{
    "lat": 47.2331394,
    "lon": 39.7865187,
    "tags": {
        "amenity": "fuel"
    }
}
,
{
    "lat": 47.2351863,
    "lon": 39.7959021,
    "tags": {
        "amenity": "fuel",
        "name": "Роснефть",
        "opening_hours": "24/7"
    }
}
,
{
    "lat": 47.2443417,
    "lon": 39.848073,
    "tags": {
        "amenity": "police",
        "name": "Пост ДПС на мосту через реку Дон"
    }
}
,
{
    "lat": 47.2448524,
    "lon": 39.8483436,
    "tags": {
        "amenity": "police",
        "name": "Пост ДПС на мосту через реку Дон"
    }
}
,
{
    "lat": 47.2221147,
    "lon": 39.6314527,
    "tags": {
        "addr:street": "улица Зорге",
        "amenity": "bank",
        "name": "МДМ Банк",
        "website": "http://www.mdm.ru/"
    }
}
,
{
    "lat": 47.2104317,
    "lon": 39.6703694,
    "tags": {
        "addr:street": "улица Литвинова",
        "amenity": "cafe",
        "name": "Кайрос"
    }
}
,
{
    "lat": 47.2107368,
    "lon": 39.672743,
    "tags": {
        "amenity": "cafe"
    }
}
,
{
    "lat": 47.2091217,
    "lon": 39.6702128,
    "tags": {
        "addr:street": "Батуринская улица",
        "amenity": "post_office",
        "contact:website": "https://www.pochta.ru",
        "name": "Ростов-на-Дону 344116",
        "opening_hours": "Mo-Fr 08:00-13:00,14:00-20:00; Sa 09:00-13:00,14:00-18:00; Su off",
        "website": "https://www.pochta.ru/"
    }
}
,
{
    "lat": 47.209833,
    "lon": 39.6702566,
    "tags": {
        "amenity": "pharmacy"
    }
}
,
{
    "lat": 47.2095982,
    "lon": 39.6713134,
    "tags": {
        "amenity": "pharmacy"
    }
}
,
{
    "lat": 47.2099262,
    "lon": 39.6723648,
    "tags": {
        "amenity": "pharmacy"
    }
}
,
{
    "lat": 47.2013472,
    "lon": 39.667451,
    "tags": {
        "amenity": "recycling"
    }
}
,
{
    "lat": 47.2014163,
    "lon": 39.6643978,
    "tags": {
        "amenity": "recycling"
    }
}
,
{
    "lat": 47.2101755,
    "lon": 39.6737099,
    "tags": {
        "amenity": "pharmacy"
    }
}
,
{
    "lat": 47.2112898,
    "lon": 39.6757577,
    "tags": {
        "amenity": "police",
        "name": "Железнодорожный ОВД"
    }
}
,
{
    "lat": 47.2072657,
    "lon": 39.671908,
    "tags": {
        "amenity": "recycling"
    }
}
,
{
    "lat": 47.2102792,
    "lon": 39.6693175,
    "tags": {
        "amenity": "recycling"
    }
}
,
{
    "lat": 47.2104981,
    "lon": 39.6742477,
    "tags": {
        "amenity": "waste_disposal"
    }
}
,
{
    "lat": 47.2073504,
    "lon": 39.6683667,
    "tags": {
        "amenity": "library",
        "name": "библиотека им. М.А.Шолохова"
    }
}
,
{
    "lat": 47.2122055,
    "lon": 39.6656539,
    "tags": {
        "amenity": "cafe"
    }
}
,
{
    "lat": 47.2097645,
    "lon": 39.6719763,
    "tags": {
        "amenity": "cafe"
    }
}
,
{
    "lat": 47.2020524,
    "lon": 39.6689799,
    "tags": {
        "amenity": "cafe"
    }
}
,
{
    "lat": 47.201965,
    "lon": 39.6685078,
    "tags": {
        "amenity": "cafe"
    }
}
,
{
    "lat": 47.201315,
    "lon": 39.6672083,
    "tags": {
        "amenity": "pub"
    }
}
,
{
    "lat": 47.2101187,
    "lon": 39.6703877,
    "tags": {
        "amenity": "parking"
    }
}
,
{
    "lat": 47.2117245,
    "lon": 39.6699562,
    "tags": {
        "amenity": "parking"
    }
}
,
{
    "lat": 47.2102134,
    "lon": 39.6663276,
    "tags": {
        "amenity": "parking"
    }
}
,
{
    "lat": 47.2045305,
    "lon": 39.6774166,
    "tags": {
        "amenity": "library",
        "name": "Детская библиотека им. Зои Космодемьянской"
    }
}
,
{
    "lat": 47.2008398,
    "lon": 39.6659925,
    "tags": {
        "amenity": "pharmacy"
    }
}
,
{
    "lat": 47.2100647,
    "lon": 39.6729472,
    "tags": {
        "amenity": "parking"
    }
}
,
{
    "lat": 47.2112999,
    "lon": 39.671259,
    "tags": {
        "amenity": "pharmacy"
    }
}
,
{
    "lat": 47.2112807,
    "lon": 39.6715727,
    "tags": {
        "amenity": "pharmacy"
    }
}
,
{
    "lat": 47.2220605,
    "lon": 39.6314781,
    "tags": {
        "addr:street": "улица Зорге",
        "amenity": "atm",
        "opening_hours": "24/7",
        "website": "http://www.mdm.ru/rostov-na-donu/about/atms/"
    }
}
,
{
    "lat": 47.2292905,
    "lon": 39.6287106,
    "tags": {
        "addr:street": "улица Зорге",
        "amenity": "atm",
        "opening_hours": "24/7",
        "website": "http://www.mdm.ru/rostov-na-donu/about/atms/"
    }
}
,
{
    "lat": 47.2085425,
    "lon": 39.6315136,
    "tags": {
        "addr:street": "Коммунистический проспект",
        "amenity": "atm",
        "opening_hours": "24/7",
        "website": "http://www.mdm.ru/rostov-na-donu/about/atms/"
    }
}
,
{
    "lat": 47.256805,
    "lon": 39.7715955,
    "tags": {
        "amenity": "police"
    }
}
,
{
    "lat": 47.2559957,
    "lon": 39.7883445,
    "tags": {
        "amenity": "post_box",
        "name": "344112",
        "website": "https://www.pochta.ru/"
    }
}
,
{
    "lat": 47.2231642,
    "lon": 39.7186446,
    "tags": {
        "amenity": "cafe",
        "name": "Пить Кофе",
        "opening_hours": "Mo-Su 08:00-01:00"
    }
}
,
{
    "lat": 47.2219609,
    "lon": 39.7130811,
    "tags": {
        "amenity": "post_box",
        "website": "https://www.pochta.ru/"
    }
}
,
{
    "lat": 47.2320669,
    "lon": 39.7611573,
    "tags": {
        "addr:street": "площадь Карла Маркса",
        "amenity": "cafe",
        "name": "Золотой Колос",
        "shop": "confectionery",
        "website": "http://www.zolotoykolos.ru/"
    }
}
,
{
    "lat": 47.2225102,
    "lon": 39.7350515,
    "tags": {
        "addr:street": "улица Станиславского",
        "amenity": "college",
        "name": "Колледж управления, права и информационных технологий МЭСИ"
    }
}
,
{
    "lat": 47.2072688,
    "lon": 39.6164422,
    "tags": {
        "amenity": "bank",
        "name": "Мособлбанк"
    }
}
,
{
    "lat": 47.2106589,
    "lon": 39.6732396,
    "tags": {
        "amenity": "fountain",
        "name": "Сфера"
    }
}
,
{
    "lat": 47.2261128,
    "lon": 39.7577251,
    "tags": {
        "amenity": "pharmacy",
        "name": "Радуга"
    }
}
,
{
    "lat": 47.2296275,
    "lon": 39.7580961,
    "tags": {
        "amenity": "pharmacy",
        "name": "Аптеки Дона №23",
        "opening_hours": "08:00-20:00",
        "phone": "+78632513463"
    }
}
,
{
    "lat": 47.2319386,
    "lon": 39.7400108,
    "tags": {
        "amenity": "pharmacy"
    }
}
,
{
    "lat": 47.2937199,
    "lon": 39.7023957,
    "tags": {
        "amenity": "pharmacy"
    }
}
,
{
    "lat": 47.2895149,
    "lon": 39.7402227,
    "tags": {
        "addr:street": "улица Штахановского",
        "amenity": "doctors",
        "name": "Нарколог",
        "opening_hours": "Mo,Th 15:00-19:00; Tu,Fr 08:00-13:00; We 10:00-15:00"
    }
}
,
{
    "lat": 47.2210164,
    "lon": 39.7156247,
    "tags": {
        "amenity": "cafe",
        "name": "Apsara"
    }
}
,
{
    "lat": 47.241161,
    "lon": 39.7076996,
    "tags": {
        "amenity": "recycling"
    }
}
,
{
    "lat": 47.2370891,
    "lon": 39.709781,
    "tags": {
        "amenity": "waste_disposal"
    }
}
,
{
    "lat": 47.2179557,
    "lon": 39.7225017,
    "tags": {
        "amenity": "cafe",
        "name": "Ложка-Поварежка"
    }
}
,
{
    "lat": 47.2224449,
    "lon": 39.7123774,
    "tags": {
        "amenity": "restaurant",
        "name": "Cыроварня"
    }
}
,
{
    "lat": 47.2295457,
    "lon": 39.7579651,
    "tags": {
        "addr:street": "Советская улица",
        "amenity": "post_office",
        "contact:website": "https://www.pochta.ru",
        "name": "Ростов-на-Дону 344019",
        "opening_hours": "Mo-Fr 08:00-13:00,14:00-20:00; Sa 09:00-13:00,14:00-18:00; Su off",
        "website": "https://www.pochta.ru/"
    }
}
,
{
    "lat": 47.2822308,
    "lon": 39.8068019,
    "tags": {
        "amenity": "parking",
        "name": "IMANGO"
    }
}
,
{
    "lat": 47.267836,
    "lon": 39.7872722,
    "tags": {
        "amenity": "pharmacy"
    }
}
,
{
    "lat": 47.2677158,
    "lon": 39.787814,
    "tags": {
        "amenity": "pharmacy"
    }
}
,
{
    "lat": 47.2669478,
    "lon": 39.7893536,
    "tags": {
        "amenity": "pharmacy"
    }
}
,
{
    "lat": 47.2643952,
    "lon": 39.7856779,
    "tags": {
        "amenity": "waste_disposal"
    }
}
,
{
    "lat": 47.2684839,
    "lon": 39.7885259,
    "tags": {
        "amenity": "school",
        "name": "Музыкальная"
    }
}
,
{
    "lat": 47.2677413,
    "lon": 39.7872357,
    "tags": {
        "amenity": "pub"
    }
}
,
{
    "lat": 47.2693655,
    "lon": 39.7904142,
    "tags": {
        "amenity": "waste_disposal"
    }
}
,
{
    "lat": 47.2683801,
    "lon": 39.787788,
    "tags": {
        "addr:street": "Калужская улица",
        "amenity": "post_office",
        "contact:website": "https://www.pochta.ru",
        "name": "Ростов-на-Дону 344020",
        "opening_hours": "Mo-Fr 08:00-13:00,14:00-20:00; Sa 09:00-13:00,14:00-18:00; Su off",
        "website": "https://www.pochta.ru/"
    }
}
,
{
    "lat": 47.2706799,
    "lon": 39.7915334,
    "tags": {
        "amenity": "clinic",
        "name": "Филиал 1-ой детской поликлиники первомайского района"
    }
}
,
{
    "lat": 47.278262,
    "lon": 39.7964067,
    "tags": {
        "amenity": "fuel",
        "name": "АГЗС"
    }
}
,
{
    "lat": 47.2332164,
    "lon": 39.7653914,
    "tags": {
        "amenity": "pharmacy"
    }
}
,
{
    "lat": 47.2663952,
    "lon": 39.7858058,
    "tags": {
        "addr:street": "Конституционная улица",
        "amenity": "pharmacy"
    }
}
,
{
    "lat": 47.2664932,
    "lon": 39.7858991,
    "tags": {
        "addr:street": "Конституционная улица",
        "amenity": "bank",
        "contact:website": "https://www.sberbank.ru",
        "name": "Сбербанк",
        "opening_hours": "Mo-Fr 08:00-18:00; Sa 08:00-15:30; Su 09:30-14:00",
        "website": "https://www.sberbank.ru/"
    }
}
,
{
    "lat": 47.2502509,
    "lon": 39.7648718,
    "tags": {
        "amenity": "bank",
        "name": "Банк Хоум Кредит",
        "phone": "8 (863) 206-10-17",
        "website": "https://ros.homecredit.ru/"
    }
}
,
{
    "lat": 47.2191119,
    "lon": 39.6913291,
    "tags": {
        "amenity": "shelter"
    }
}
,
{
    "lat": 47.2191877,
    "lon": 39.6914255,
    "tags": {
        "amenity": "shelter"
    }
}
,
{
    "lat": 47.203279,
    "lon": 39.6314064,
    "tags": {
        "amenity": "pharmacy",
        "name": "Социальная аптека"
    }
}
,
{
    "lat": 47.2035705,
    "lon": 39.6304829,
    "tags": {
        "amenity": "waste_disposal"
    }
}
,
{
    "lat": 47.2016971,
    "lon": 39.6312393,
    "tags": {
        "amenity": "recycling"
    }
}
,
{
    "lat": 47.2313096,
    "lon": 39.6109236,
    "tags": {
        "amenity": "cinema",
        "name": "Люксор",
        "phone": "+7-863-2040811",
        "website": "http://www.luxorfilm.ru/cinema/rostov-na-donu"
    }
}
,
{
    "lat": 47.298973,
    "lon": 39.70117,
    "tags": {
        "amenity": "car_wash"
    }
}
,
{
    "lat": 47.2958718,
    "lon": 39.6965696,
    "tags": {
        "amenity": "car_wash"
    }
}
,
{
    "lat": 47.2895256,
    "lon": 39.7121954,
    "tags": {
        "amenity": "car_wash"
    }
}
,
{
    "lat": 47.2960675,
    "lon": 39.715369,
    "tags": {
        "amenity": "pharmacy"
    }
}
,
{
    "lat": 47.2913998,
    "lon": 39.713521,
    "tags": {
        "amenity": "stripclub",
        "name": "Космос"
    }
}
,
{
    "lat": 47.2916183,
    "lon": 39.7134952,
    "tags": {
        "amenity": "atm"
    }
}
,
{
    "lat": 47.2329895,
    "lon": 39.7133258,
    "tags": {
        "amenity": "recycling"
    }
}
,
{
    "lat": 47.2311099,
    "lon": 39.7257284,
    "tags": {
        "amenity": "atm"
    }
}
,
{
    "lat": 47.2273141,
    "lon": 39.7277668,
    "tags": {
        "amenity": "atm",
        "name": "Центр-инвест"
    }
}
,
{
    "lat": 47.2252429,
    "lon": 39.716364,
    "tags": {
        "amenity": "bank",
        "name": "МДМ Банк",
        "website": "http://www.mdm.ru/"
    }
}
,
{
    "lat": 47.2553814,
    "lon": 39.6491318,
    "tags": {
        "amenity": "parking"
    }
}
,
{
    "lat": 47.2031223,
    "lon": 39.7282217,
    "tags": {
        "amenity": "fuel"
    }
}
,
{
    "lat": 47.2838905,
    "lon": 39.7168006,
    "tags": {
        "amenity": "restaurant",
        "name": "Рис"
    }
}
,
{
    "lat": 47.238784,
    "lon": 39.8274492,
    "tags": {
        "amenity": "parking"
    }
}
,
{
    "lat": 47.2323122,
    "lon": 39.6294601,
    "tags": {
        "amenity": "fuel",
        "name": "Ростнефть"
    }
}
,
{
    "lat": 47.2290678,
    "lon": 39.6287435,
    "tags": {
        "amenity": "fast_food",
        "contact:website": "https://mcdonalds.ru",
        "name": "Макдоналдс",
        "opening_hours": "24/7"
    }
}
,
{
    "lat": 47.2359174,
    "lon": 39.6382419,
    "tags": {
        "addr:street": "улица Мадояна",
        "amenity": "place_of_worship",
        "name": "Аллилуя"
    }
}
,
{
    "lat": 47.2114965,
    "lon": 39.6345353,
    "tags": {
        "amenity": "restaurant",
        "name": "ГлавПивТрест"
    }
}
,
{
    "lat": 47.2109883,
    "lon": 39.6345704,
    "tags": {
        "amenity": "restaurant",
        "name": "Самовар"
    }
}
,
{
    "lat": 47.2128078,
    "lon": 39.6374279,
    "tags": {
        "amenity": "dentist",
        "name": "Зубной кабинет"
    }
}
,
{
    "lat": 47.2597549,
    "lon": 39.7728522,
    "tags": {
        "amenity": "waste_disposal"
    }
}
,
{
    "lat": 47.2591651,
    "lon": 39.7743328,
    "tags": {
        "amenity": "waste_disposal"
    }
}
,
{
    "lat": 47.2277366,
    "lon": 39.6340305,
    "tags": {
        "addr:street": "улица Содружества",
        "amenity": "bank",
        "contact:website": "https://www.sberbank.ru",
        "name": "Сбербанк",
        "website": "https://www.sberbank.ru/"
    }
}
,
{
    "lat": 47.2277366,
    "lon": 39.6337217,
    "tags": {
        "addr:street": "улица Содружества",
        "amenity": "post_office",
        "contact:website": "https://www.pochta.ru",
        "name": "Ростов-на-Дону 344103",
        "opening_hours": "Mo-Fr 08:00-13:00,14:00-20:00; Sa 09:00-13:00,14:00-18:00; Su off",
        "website": "https://www.pochta.ru/"
    }
}
,
{
    "lat": 47.2459604,
    "lon": 39.6868725,
    "tags": {
        "amenity": "fuel"
    }
}
,
{
    "lat": 47.234764,
    "lon": 39.713012,
    "tags": {
        "amenity": "pharmacy"
    }
}
,
{
    "lat": 47.2473035,
    "lon": 39.6546271,
    "tags": {
        "amenity": "fuel"
    }
}
,
{
    "lat": 47.2179662,
    "lon": 39.6737171,
    "tags": {
        "amenity": "shelter",
        "name": "Музыкальная школа"
    }
}
,
{
    "lat": 47.2368507,
    "lon": 39.7165473,
    "tags": {
        "amenity": "parking"
    }
}
,
{
    "lat": 47.2358046,
    "lon": 39.7152223,
    "tags": {
        "amenity": "parking"
    }
}
,
{
    "lat": 47.2323679,
    "lon": 39.7140314,
    "tags": {
        "amenity": "restaurant",
        "name": "Рис"
    }
}
,
{
    "lat": 47.2334403,
    "lon": 39.7173275,
    "tags": {
        "amenity": "parking"
    }
}
,
{
    "lat": 47.2320565,
    "lon": 39.7173412,
    "tags": {
        "amenity": "pharmacy"
    }
}
,
{
    "lat": 47.2345805,
    "lon": 39.722491,
    "tags": {
        "amenity": "restaurant",
        "name": "Гусь и противень"
    }
}
,
{
    "lat": 47.2329997,
    "lon": 39.7169134,
    "tags": {
        "amenity": "pharmacy"
    }
}
,
{
    "lat": 47.2225156,
    "lon": 39.7216863,
    "tags": {
        "amenity": "bicycle_parking"
    }
}
,
{
    "lat": 47.2343112,
    "lon": 39.714305,
    "tags": {
        "amenity": "parking"
    }
}
,
{
    "lat": 47.2338777,
    "lon": 39.7152227,
    "tags": {
        "amenity": "parking"
    }
}
,
{
    "lat": 47.2318295,
    "lon": 39.6289683,
    "tags": {
        "amenity": "car_wash",
        "name": "Karcher автомойка"
    }
}
,
{
    "lat": 47.2307676,
    "lon": 39.619249,
    "tags": {
        "amenity": "recycling"
    }
}
,
{
    "lat": 47.2307094,
    "lon": 39.6191883,
    "tags": {
        "amenity": "pharmacy"
    }
}
,
{
    "lat": 47.2222297,
    "lon": 39.7103836,
    "tags": {
        "amenity": "police"
    }
}
,
{
    "lat": 47.2212964,
    "lon": 39.7067597,
    "tags": {
        "amenity": "cafe",
        "name": "Питькофе 24 часа",
        "opening_hours": "24/7"
    }
}
,
{
    "lat": 47.2204415,
    "lon": 39.7082038,
    "tags": {
        "addr:street": "Большая Садовая улица",
        "amenity": "cafe",
        "name": "Золотой колос",
        "shop": "confectionery",
        "website": "http://www.zolotoykolos.ru/"
    }
}
,
{
    "lat": 47.2536759,
    "lon": 39.7667519,
    "tags": {
        "amenity": "cafe",
        "name": "кофе-чай;Одежда - Обувь",
        "shop": "clothes"
    }
}
,
{
    "lat": 47.2507185,
    "lon": 39.7664956,
    "tags": {
        "amenity": "police",
        "name": "росстандарт"
    }
}
,
{
    "lat": 47.2563331,
    "lon": 39.7655193,
    "tags": {
        "amenity": "cafe"
    }
}
,
{
    "lat": 47.2583902,
    "lon": 39.7711894,
    "tags": {
        "amenity": "waste_disposal"
    }
}
,
{
    "lat": 47.2663373,
    "lon": 39.683491,
    "tags": {
        "amenity": "fuel",
        "contact:website": "https://lukoil.ru/",
        "name": "Лукойл",
        "opening_hours": "24/7",
        "shop": "yes",
        "toilets": "yes"
    }
}
,
{
    "lat": 47.256598,
    "lon": 39.6406259,
    "tags": {
        "amenity": "fuel"
    }
}
,
{
    "lat": 47.229901,
    "lon": 39.735896,
    "tags": {
        "addr:street": "Пушкинская улица",
        "amenity": "cinema",
        "name": "Дом Кино"
    }
}
,
{
    "lat": 47.1963407,
    "lon": 39.7314864,
    "tags": {
        "amenity": "police",
        "name": "ДПС"
    }
}
,
{
    "lat": 47.2006131,
    "lon": 39.7089811,
    "tags": {
        "amenity": "fuel"
    }
}
,
{
    "lat": 47.1642534,
    "lon": 39.6492182,
    "tags": {
        "addr:street": "Западный подъезд",
        "amenity": "fuel",
        "name": "Shell"
    }
}
,
{
    "lat": 47.2312309,
    "lon": 39.7176919,
    "tags": {
        "addr:street": "проспект Соколова",
        "amenity": "post_office",
        "contact:website": "https://www.pochta.ru",
        "name": "Ростов-на-Дону 344000",
        "opening_hours": "Mo-Fr 08:00-22:00; Sa-Su 09:00-18:00",
        "website": "https://www.pochta.ru/"
    }
}
,
{
    "lat": 47.259785,
    "lon": 39.6905718,
    "tags": {
        "amenity": "bank",
        "contact:website": "https://www.sberbank.ru",
        "name": "Сбербанк",
        "opening_hours": "Tu-Fr 08:00-19:00; We 08:00-18:00; Sa 08:00-17:00",
        "website": "https://www.sberbank.ru/"
    }
}
,
{
    "lat": 47.2605103,
    "lon": 39.6898202,
    "tags": {
        "amenity": "pharmacy",
        "name": "Юг-Фарма"
    }
}
,
{
    "lat": 47.2608189,
    "lon": 39.6895558,
    "tags": {
        "amenity": "atm",
        "name": "Центр-инвест"
    }
}
,
{
    "lat": 47.2323346,
    "lon": 39.7261838,
    "tags": {
        "addr:street": "улица Тельмана",
        "amenity": "post_office"
    }
}
,
{
    "lat": 47.2286224,
    "lon": 39.7532912,
    "tags": {
        "amenity": "pharmacy",
        "name": "ЮГ Фарма"
    }
}
,
{
    "lat": 47.2042914,
    "lon": 39.6764693,
    "tags": {
        "amenity": "drinking_water"
    }
}
,
{
    "lat": 47.2267257,
    "lon": 39.6288674,
    "tags": {
        "amenity": "pharmacy"
    }
}
,
{
    "lat": 47.2316881,
    "lon": 39.6248414,
    "tags": {
        "addr:street": "улица Ерёменко",
        "amenity": "post_office",
        "contact:website": "https://www.pochta.ru",
        "name": "Ростов-на-Дону 344015",
        "opening_hours": "Mo-Fr 08:00-13:00,14:00-20:00; Sa 09:00-13:00,14:00-18:00; Su off",
        "website": "https://www.pochta.ru/"
    }
}
,
{
    "lat": 47.225498,
    "lon": 39.624763,
    "tags": {
        "amenity": "atm",
        "website": "https://www.sberbank.ru/"
    }
}
,
{
    "lat": 47.2259251,
    "lon": 39.6165802,
    "tags": {
        "amenity": "bank",
        "name": "Центр-Инвест"
    }
}
,
{
    "lat": 47.2274206,
    "lon": 39.6211472,
    "tags": {
        "amenity": "atm",
        "website": "https://www.sberbank.ru/"
    }
}
,
{
    "lat": 47.2214178,
    "lon": 39.6308202,
    "tags": {
        "amenity": "atm",
        "name": "Центр-инвест"
    }
}
,
{
    "lat": 47.2258304,
    "lon": 39.699254,
    "tags": {
        "amenity": "bank",
        "name": "Донинвест"
    }
}
,
{
    "lat": 47.2505813,
    "lon": 39.7669226,
    "tags": {
        "addr:street": "улица Селиванова",
        "amenity": "post_office",
        "contact:website": "https://www.pochta.ru",
        "name": "Ростов-на-Дону 344029",
        "opening_hours": "Mo-Fr 08:00-22:00; Sa 09:00-18:00; Su 09:00-14:00",
        "website": "https://www.pochta.ru/"
    }
}
,
{
    "lat": 47.2139743,
    "lon": 39.6265222,
    "tags": {
        "amenity": "bank",
        "contact:website": "https://www.sberbank.ru",
        "name": "Сбербанк",
        "website": "https://www.sberbank.ru/rostov/ru/"
    }
}
,
{
    "lat": 47.2335794,
    "lon": 39.616488,
    "tags": {
        "amenity": "drinking_water"
    }
}
,
{
    "lat": 47.2074993,
    "lon": 39.6882085,
    "tags": {
        "amenity": "bank",
        "contact:website": "https://www.sberbank.ru",
        "name": "Сбербанк",
        "opening_hours": "Mo-Fr 09:00-16:30; Sa 09:00-16:00"
    }
}
,
{
    "lat": 47.2075617,
    "lon": 39.6884049,
    "tags": {
        "addr:street": "Портовая улица",
        "amenity": "post_office",
        "contact:website": "https://www.pochta.ru",
        "name": "Ростов-на-Дону 344034",
        "opening_hours": "Mo-Fr 08:00-13:00,14:00-20:00; Sa 09:00-13:00,14:00-18:00; Su off",
        "website": "https://www.pochta.ru/"
    }
}
,
{
    "lat": 47.2948894,
    "lon": 39.7601285,
    "tags": {
        "amenity": "parking"
    }
}
,
{
    "lat": 47.1878812,
    "lon": 39.5879811,
    "tags": {
        "addr:street": "Кумженская улица",
        "amenity": "restaurant",
        "name": "100-й пруд"
    }
}
,
{
    "lat": 47.1882446,
    "lon": 39.6204263,
    "tags": {
        "addr:street": "Кумженская улица",
        "amenity": "restaurant",
        "name": "Донская роща",
        "phone": "+7 (863) 221-00-07",
        "website": "http://www.donrosha.ru/"
    }
}
,
{
    "lat": 47.2700738,
    "lon": 39.8226809,
    "tags": {
        "amenity": "fuel",
        "name": "АГЗС"
    }
}
,
{
    "lat": 47.2796281,
    "lon": 39.7622944,
    "tags": {
        "amenity": "parking"
    }
}
,
{
    "lat": 47.2826778,
    "lon": 39.7592367,
    "tags": {
        "amenity": "parking"
    }
}
,
{
    "lat": 47.234684,
    "lon": 39.7159794,
    "tags": {
        "amenity": "waste_disposal"
    }
}
,
{
    "lat": 47.2331917,
    "lon": 39.7145085,
    "tags": {
        "amenity": "pub",
        "name": "Пинта"
    }
}
,
{
    "lat": 47.2413467,
    "lon": 39.7070788,
    "tags": {
        "amenity": "restaurant",
        "name": "Домашняя кухня"
    }
}
,
{
    "lat": 47.234818,
    "lon": 39.7099718,
    "tags": {
        "amenity": "hospital",
        "name": "6 и 2 детское инфекционное отделение"
    }
}
,
{
    "lat": 47.2475895,
    "lon": 39.696664,
    "tags": {
        "amenity": "fuel",
        "name": "Роснефть",
        "opening_hours": "24/7"
    }
}
,
{
    "lat": 47.286974,
    "lon": 39.7441549,
    "tags": {
        "addr:street": "улица Штахановского",
        "amenity": "post_office",
        "contact:website": "https://www.pochta.ru",
        "name": "Ростов-на-Дону 344095",
        "opening_hours": "Mo-Fr 08:00-13:00,14:00-20:00; Sa 09:00-13:00,14:00-18:00; Su off",
        "website": "https://www.pochta.ru/"
    }
}
,
{
    "lat": 47.2347483,
    "lon": 39.7099673,
    "tags": {
        "amenity": "hospital",
        "name": "Детская реанимация"
    }
}
,
{
    "lat": 47.2325904,
    "lon": 39.714795,
    "tags": {
        "amenity": "parking"
    }
}
,
{
    "lat": 47.233084,
    "lon": 39.7165452,
    "tags": {
        "amenity": "parking"
    }
}
,
{
    "lat": 47.2337289,
    "lon": 39.7159633,
    "tags": {
        "amenity": "parking"
    }
}
,
{
    "lat": 47.2343075,
    "lon": 39.7165658,
    "tags": {
        "amenity": "parking"
    }
}
,
{
    "lat": 47.2349058,
    "lon": 39.7161716,
    "tags": {
        "amenity": "parking"
    }
}
,
{
    "lat": 47.2350654,
    "lon": 39.7164142,
    "tags": {
        "amenity": "parking"
    }
}
,
{
    "lat": 47.2364937,
    "lon": 39.716004,
    "tags": {
        "amenity": "parking"
    }
}
,
{
    "lat": 47.2905947,
    "lon": 39.785859,
    "tags": {
        "addr:street": "Орская улица",
        "amenity": "hospital",
        "name": "Областной клинический центр фтизиопульмонологии"
    }
}
,
{
    "lat": 47.2912642,
    "lon": 39.7793573,
    "tags": {
        "amenity": "marketplace",
        "name": "Рынок \"Меркурий\""
    }
}
,
{
    "lat": 47.2841057,
    "lon": 39.753466,
    "tags": {
        "amenity": "bar",
        "name": "Неолит"
    }
}
,
{
    "lat": 47.22155,
    "lon": 39.7184059,
    "tags": {
        "addr:street": "Ворошиловский проспект",
        "amenity": "bank",
        "name": "БНП Париба",
        "phone": "88007007700",
        "website": "http://www.bnpparibas.ru/ru/home/default.asp"
    }
}
,
{
    "lat": 47.2200785,
    "lon": 39.7167942,
    "tags": {
        "addr:street": "улица Серафимовича",
        "amenity": "townhall",
        "name": "Администрация Кировского района"
    }
}
,
{
    "lat": 47.2194402,
    "lon": 39.7176683,
    "tags": {
        "addr:street": "Московская улица",
        "amenity": "hospital",
        "name": "Медико-санитарная часть ГУВД"
    }
}
,
{
    "lat": 47.2203421,
    "lon": 39.719203,
    "tags": {
        "addr:street": "Темерницкая улица",
        "amenity": "bank",
        "contact:website": "https://alfabank.ru",
        "name": "Альфа-Банк",
        "opening_hours": "Mo-Sa 09:00-20:00; Su off"
    }
}
,
{
    "lat": 47.2210319,
    "lon": 39.7188161,
    "tags": {
        "addr:street": "Ворошиловский проспект",
        "amenity": "bank",
        "contact:website": "https://www.vtb.ru",
        "name": "ВТБ"
    }
}
,
{
    "lat": 47.2209984,
    "lon": 39.7189628,
    "tags": {
        "addr:street": "Ворошиловский проспект",
        "amenity": "atm",
        "contact:website": "https://www.vtb.ru/o-banke/kontakty/otdeleniya/imported/office-2088/",
        "name": "ВТБ — ОО «Южный»",
        "opening_hours": "24/7"
    }
}
,
{
    "lat": 47.22474,
    "lon": 39.7065734,
    "tags": {
        "addr:street": "Будённовский проспект",
        "amenity": "post_office",
        "contact:website": "https://www.pochta.ru",
        "name": "Ростов-на-Дону 344002",
        "opening_hours": "Mo-Fr 08:00-22:00; Sa-Su 09:00-18:00",
        "website": "https://www.pochta.ru/"
    }
}
,
{
    "lat": 47.2259081,
    "lon": 39.7056817,
    "tags": {
        "amenity": "pharmacy",
        "name": "Аптека 36,6",
        "website": "https://366.ru/"
    }
}
,
{
    "lat": 47.2263015,
    "lon": 39.7056924,
    "tags": {
        "amenity": "pharmacy",
        "name": "Юг-Фарма",
        "opening_hours": "Mo-Su 00:00-24:00"
    }
}
,
{
    "lat": 47.2261121,
    "lon": 39.7060036,
    "tags": {
        "amenity": "grave_yard"
    }
}
,
{
    "lat": 47.2259023,
    "lon": 39.7038975,
    "tags": {
        "addr:street": "Красноармейская улица",
        "amenity": "university",
        "name": "Южно-Российский Гуманитарный Институт"
    }
}
,
{
    "lat": 47.226012,
    "lon": 39.7043558,
    "tags": {
        "amenity": "bank",
        "contact:website": "https://www.vtb.ru",
        "name": "ВТБ"
    }
}
,
{
    "lat": 47.2239003,
    "lon": 39.7065171,
    "tags": {
        "addr:street": "Будённовский проспект",
        "amenity": "police",
        "name": "ОП 4 Управления МВД России по г. Ростовую-на-Дону"
    }
}
,
{
    "lat": 47.224432,
    "lon": 39.7066007,
    "tags": {
        "amenity": "telephone"
    }
}
,
{
    "lat": 47.2245742,
    "lon": 39.7066413,
    "tags": {
        "amenity": "public_building",
        "name": "Радиочастотный центр Южного федерального округа"
    }
}
,
{
    "lat": 47.2246529,
    "lon": 39.7066091,
    "tags": {
        "amenity": "public_building",
        "name": "Управление Федеральной службы по надзору в сфере связи по РО"
    }
}
,
{
    "lat": 47.2667699,
    "lon": 39.6655459,
    "tags": {
        "amenity": "pharmacy"
    }
}
,
{
    "lat": 47.2625216,
    "lon": 39.6697034,
    "tags": {
        "amenity": "pub"
    }
}
,
{
    "lat": 47.1702579,
    "lon": 39.6414064,
    "tags": {
        "amenity": "fuel",
        "name": "Новатэк"
    }
}
,
{
    "lat": 47.1980449,
    "lon": 39.6953104,
    "tags": {
        "amenity": "fuel"
    }
}
,
{
    "lat": 47.2207113,
    "lon": 39.6321521,
    "tags": {
        "amenity": "pharmacy",
        "name": "Юг-Фарма",
        "opening_hours": "Mo-Su,PH 08:00-21:00",
        "shop": "stationery"
    }
}
,
{
    "lat": 47.2039241,
    "lon": 39.6130446,
    "tags": {
        "amenity": "car_wash"
    }
}
,
{
    "lat": 47.2207936,
    "lon": 39.7239157,
    "tags": {
        "amenity": "clinic",
        "name": "БАК лаборатория"
    }
}
,
{
    "lat": 47.2212443,
    "lon": 39.7246673,
    "tags": {
        "addr:street": "проспект Чехова",
        "amenity": "clinic",
        "name": "Поликлиника №10"
    }
}
,
{
    "lat": 47.1986261,
    "lon": 39.612573,
    "tags": {
        "amenity": "car_wash"
    }
}
,
{
    "lat": 47.2204184,
    "lon": 39.6913263,
    "tags": {
        "amenity": "fuel",
        "contact:website": "https://lukoil.ru/",
        "name": "Лукойл",
        "opening_hours": "24/7",
        "shop": "yes"
    }
}
,
{
    "lat": 47.258698,
    "lon": 39.627473,
    "tags": {
        "addr:street": "Нефтяной переулок",
        "amenity": "fuel"
    }
}
,
{
    "lat": 47.2187422,
    "lon": 39.633226,
    "tags": {
        "addr:street": "улица Зорге",
        "amenity": "bank",
        "contact:website": "https://www.sberbank.ru",
        "name": "Сбербанк",
        "opening_hours": "Mo-Fr 08:00-19:00; Sa 08:00-16:00"
    }
}
,
{
    "lat": 47.2325662,
    "lon": 39.6416399,
    "tags": {
        "amenity": "shelter"
    }
}
,
{
    "lat": 47.2334344,
    "lon": 39.641251,
    "tags": {
        "addr:street": "улица Мадояна",
        "amenity": "post_office",
        "contact:website": "https://www.pochta.ru",
        "name": "Ростов-на-Дону 344041",
        "opening_hours": "Mo-Fr 08:00-13:00,14:00-20:00; Sa 09:00-13:00,14:00-18:00; Su off",
        "website": "https://www.pochta.ru/"
    }
}
,
{
    "lat": 47.2075676,
    "lon": 39.6319398,
    "tags": {
        "addr:street": "Коммунистический проспект",
        "amenity": "bank",
        "contact:website": "https://www.vtb.ru",
        "name": "ВТБ"
    }
}
,
{
    "lat": 47.2216807,
    "lon": 39.6975114,
    "tags": {
        "amenity": "parking_entrance"
    }
}
,
{
    "lat": 47.2217154,
    "lon": 39.6976459,
    "tags": {
        "addr:street": "Пушкинская улица",
        "amenity": "bank",
        "name": "АМИ-БАНК",
        "website": "http://www.amibank.ru/rostov/"
    }
}
,
{
    "lat": 47.2497872,
    "lon": 39.6965346,
    "tags": {
        "amenity": "restaurant",
        "name": "Рис"
    }
}
,
{
    "lat": 47.2491947,
    "lon": 39.6967616,
    "tags": {
        "amenity": "pharmacy"
    }
}
,
{
    "lat": 47.2588274,
    "lon": 39.6936578,
    "tags": {
        "amenity": "car_wash",
        "name": "Дельфин"
    }
}
,
{
    "lat": 47.2543269,
    "lon": 39.6958307,
    "tags": {
        "amenity": "car_wash",
        "name": "Риф"
    }
}
,
{
    "lat": 47.2195265,
    "lon": 39.7072785,
    "tags": {
        "addr:street": "Будённовский проспект",
        "amenity": "fast_food",
        "name": "KFC",
        "opening_hours": "Mo-Su 08:00-23:00",
        "phone": "+7 950 856 97 10",
        "website": "http://www.kfc.ru/"
    }
}
,
{
    "lat": 47.2226355,
    "lon": 39.7246042,
    "tags": {
        "amenity": "pharmacy",
        "name": "Мир здоровья",
        "opening_hours": "Mo-Su 08:00-22:00"
    }
}
,
{
    "lat": 47.2240973,
    "lon": 39.7273777,
    "tags": {
        "amenity": "pharmacy",
        "name": "Актека 24",
        "opening_hours": "24/7"
    }
}
,
{
    "lat": 47.2250549,
    "lon": 39.7304155,
    "tags": {
        "addr:street": "Большая Садовая улица",
        "amenity": "restaurant",
        "name": "New York",
        "opening_hours": "Su-Th 12:00-01:00; Fr-Sa 12:00-03:00",
        "phone": "+7 863 266 56 66",
        "website": "http://goodrestaurants.ru/restaurants/new-york/"
    }
}
,
{
    "lat": 47.2504373,
    "lon": 39.7659949,
    "tags": {
        "amenity": "pharmacy",
        "name": "Радуга"
    }
}
,
{
    "lat": 47.2520544,
    "lon": 39.6860659,
    "tags": {
        "addr:street": "улица Ярослава Галана",
        "amenity": "post_office",
        "contact:website": "https://www.pochta.ru",
        "name": "Ростов-на-Дону 344079",
        "opening_hours": "Mo-Fr 08:00-13:00,14:00-20:00; Sa 09:00-13:00,14:00-18:00; Su off",
        "website": "https://www.pochta.ru/"
    }
}
,
{
    "lat": 47.2185552,
    "lon": 39.6991055,
    "tags": {
        "amenity": "library",
        "name": "Центральная городская библиотека им. М. Горького"
    }
}
,
{
    "lat": 47.2182763,
    "lon": 39.7003706,
    "tags": {
        "amenity": "atm"
    }
}
,
{
    "lat": 47.2168945,
    "lon": 39.7013377,
    "tags": {
        "amenity": "pub"
    }
}
,
{
    "lat": 47.2168799,
    "lon": 39.7010963,
    "tags": {
        "amenity": "post_box"
    }
}
,
{
    "lat": 47.2183565,
    "lon": 39.7004296,
    "tags": {
        "amenity": "bank",
        "name": "GE Money Bank"
    }
}
,
{
    "lat": 47.2167852,
    "lon": 39.7008254,
    "tags": {
        "amenity": "restaurant"
    }
}
,
{
    "lat": 47.2171376,
    "lon": 39.7006526,
    "tags": {
        "amenity": "pharmacy"
    }
}
,
{
    "lat": 47.2180832,
    "lon": 39.7009017,
    "tags": {
        "amenity": "waste_basket"
    }
}
,
{
    "lat": 47.216541,
    "lon": 39.6995111,
    "tags": {
        "amenity": "waste_basket"
    }
}
,
{
    "lat": 47.2246139,
    "lon": 39.6258746,
    "tags": {
        "addr:street": "улица 339-й Стрелковой Дивизии",
        "amenity": "restaurant",
        "name": "Соблазн"
    }
}
,
{
    "lat": 47.2344576,
    "lon": 39.7236423,
    "tags": {
        "amenity": "waste_disposal"
    }
}
,
{
    "lat": 47.2628865,
    "lon": 39.8115908,
    "tags": {
        "amenity": "parking"
    }
}
,
{
    "lat": 47.2612333,
    "lon": 39.806742,
    "tags": {
        "addr:street": "проспект Шолохова",
        "amenity": "pharmacy",
        "name": "Аптека №223"
    }
}
,
{
    "lat": 47.2606145,
    "lon": 39.8057442,
    "tags": {
        "addr:street": "проспект Шолохова",
        "amenity": "post_office",
        "contact:website": "https://www.pochta.ru",
        "name": "Ростов-на-Дону 344009",
        "opening_hours": "Mo-Fr 08:00-13:00,14:00-20:00; Sa 09:00-13:00,14:00-18:00; Su off",
        "website": "https://www.pochta.ru/"
    }
}
,
{
    "lat": 47.2563384,
    "lon": 39.8050417,
    "tags": {
        "amenity": "police"
    }
}
,
{
    "lat": 47.2595114,
    "lon": 39.8061206,
    "tags": {
        "amenity": "hospital"
    }
}
,
{
    "lat": 47.2570939,
    "lon": 39.8055835,
    "tags": {
        "amenity": "parking"
    }
}
,
{
    "lat": 47.2316406,
    "lon": 39.7264409,
    "tags": {
        "amenity": "cinema",
        "name": "Кинотеатр Большой"
    }
}
,
{
    "lat": 47.2307052,
    "lon": 39.7397771,
    "tags": {
        "amenity": "bank",
        "name": "Фондсервисбанк"
    }
}
,
{
    "lat": 47.2043727,
    "lon": 39.6129227,
    "tags": {
        "amenity": "fuel",
        "name": "ТНК",
        "opening_hours": "24/7"
    }
}
,
{
    "lat": 47.2290474,
    "lon": 39.6969988,
    "tags": {
        "amenity": "veterinary",
        "name": "Ветклиника"
    }
}
,
{
    "lat": 47.2314921,
    "lon": 39.7650029,
    "tags": {
        "amenity": "bank",
        "contact:website": "https://www.sberbank.ru",
        "name": "Сбербанк",
        "opening_hours": "Mo-Fr 08:00-18:30; Sa 08:00-16:30; Su 09:00-13:30"
    }
}
,
{
    "lat": 47.2857623,
    "lon": 39.8022352,
    "tags": {
        "amenity": "car_wash"
    }
}
,
{
    "lat": 47.2491009,
    "lon": 39.7110814,
    "tags": {
        "addr:street": "проспект Ленина",
        "amenity": "post_office",
        "contact:website": "https://www.pochta.ru",
        "name": "Ростов-на-Дону 344038",
        "opening_hours": "Mo-Fr 08:00-13:00,14:00-20:00; Sa 09:00-13:00,14:00-18:00; Su off",
        "website": "https://www.pochta.ru/"
    }
}
,
{
    "lat": 47.2246246,
    "lon": 39.717926,
    "tags": {
        "amenity": "baby_hatch"
    }
}
,
{
    "lat": 47.2388644,
    "lon": 39.8304821,
    "tags": {
        "amenity": "toilets"
    }
}
,
{
    "lat": 47.2321704,
    "lon": 39.7398376,
    "tags": {
        "amenity": "fast_food"
    }
}
,
{
    "lat": 47.232613,
    "lon": 39.7655761,
    "tags": {
        "amenity": "clinic",
        "name": "Поликлиническое отделение Детской поликлиники №1 (Пролетарский район)"
    }
}
,
{
    "lat": 47.2324334,
    "lon": 39.7408399,
    "tags": {
        "amenity": "atm"
    }
}
,
{
    "lat": 47.2324418,
    "lon": 39.7407576,
    "tags": {
        "amenity": "bank",
        "name": "Народный кредит"
    }
}
,
{
    "lat": 47.218949,
    "lon": 39.6139034,
    "tags": {
        "amenity": "cafe",
        "name": "У борца"
    }
}
,
{
    "lat": 47.2205397,
    "lon": 39.614084,
    "tags": {
        "amenity": "cafe",
        "name": "Колхоз"
    }
}
,
{
    "lat": 47.2203651,
    "lon": 39.6140813,
    "tags": {
        "amenity": "car_wash"
    }
}
,
{
    "lat": 47.2220939,
    "lon": 39.6141692,
    "tags": {
        "amenity": "car_wash"
    }
}
,
{
    "lat": 47.2300248,
    "lon": 39.7377885,
    "tags": {
        "amenity": "fountain"
    }
}
,
{
    "lat": 47.2289695,
    "lon": 39.7325893,
    "tags": {
        "amenity": "bench"
    }
}
,
{
    "lat": 47.2290336,
    "lon": 39.7328546,
    "tags": {
        "amenity": "bench"
    }
}
,
{
    "lat": 47.2290896,
    "lon": 39.733144,
    "tags": {
        "amenity": "bench"
    }
}
,
{
    "lat": 47.2290964,
    "lon": 39.7326838,
    "tags": {
        "amenity": "bench"
    }
}
,
{
    "lat": 47.2291578,
    "lon": 39.7329591,
    "tags": {
        "amenity": "bench"
    }
}
,
{
    "lat": 47.2292042,
    "lon": 39.7337147,
    "tags": {
        "amenity": "bench"
    }
}
,
{
    "lat": 47.2292875,
    "lon": 39.7335399,
    "tags": {
        "amenity": "bench"
    }
}
,
{
    "lat": 47.2293407,
    "lon": 39.7337971,
    "tags": {
        "amenity": "bench"
    }
}
,
{
    "lat": 47.2438503,
    "lon": 39.7191148,
    "tags": {
        "addr:street": "улица Нансена",
        "amenity": "fuel"
    }
}
,
{
    "lat": 47.2323037,
    "lon": 39.7313303,
    "tags": {
        "amenity": "recycling"
    }
}
,
{
    "lat": 47.2424964,
    "lon": 39.8214537,
    "tags": {
        "amenity": "waste_disposal"
    }
}
,
{
    "lat": 47.2425925,
    "lon": 39.798947,
    "tags": {
        "amenity": "fuel",
        "name": "Эксон Ойл"
    }
}
,
{
    "lat": 47.2425271,
    "lon": 39.8214711,
    "tags": {
        "amenity": "waste_disposal"
    }
}
,
{
    "lat": 47.2431327,
    "lon": 39.8223433,
    "tags": {
        "amenity": "waste_disposal"
    }
}
,
{
    "lat": 47.2431348,
    "lon": 39.8222834,
    "tags": {
        "amenity": "waste_disposal"
    }
}
,
{
    "lat": 47.2431357,
    "lon": 39.8222369,
    "tags": {
        "amenity": "waste_disposal"
    }
}
,
{
    "lat": 47.2494496,
    "lon": 39.7045051,
    "tags": {
        "amenity": "restaurant",
        "name": "Столовая"
    }
}
,
{
    "lat": 47.2196186,
    "lon": 39.7081949,
    "tags": {
        "amenity": "fast_food",
        "contact:website": "https://mcdonalds.ru",
        "name": "Невкусная точка"
    }
}
,
{
    "lat": 47.2633448,
    "lon": 39.7162144,
    "tags": {
        "amenity": "waste_basket"
    }
}
,
{
    "lat": 47.2495918,
    "lon": 39.7201358,
    "tags": {
        "amenity": "driving_school",
        "name": "Приоритет"
    }
}
,
{
    "lat": 47.2578363,
    "lon": 39.7160233,
    "tags": {
        "amenity": "driving_school",
        "name": "ОТШ"
    }
}
,
{
    "lat": 47.2647428,
    "lon": 39.7189939,
    "tags": {
        "addr:street": "улица Нариманова",
        "amenity": "veterinary",
        "name": "ВетЗооЦентр",
        "opening_hours": "Mo-Fr 10:00-20:00; Sa-Su 10:00-17:00",
        "phone": "+7 863 2926662"
    }
}
,
{
    "lat": 47.2631386,
    "lon": 39.7180992,
    "tags": {
        "amenity": "waste_disposal"
    }
}
,
{
    "lat": 47.2643317,
    "lon": 39.7189926,
    "tags": {
        "amenity": "waste_disposal"
    }
}
,
{
    "lat": 47.2720581,
    "lon": 39.7130047,
    "tags": {
        "amenity": "waste_disposal"
    }
}
,
{
    "lat": 47.2463714,
    "lon": 39.7563886,
    "tags": {
        "amenity": "fuel"
    }
}
,
{
    "lat": 47.2470922,
    "lon": 39.657227,
    "tags": {
        "addr:street": "Змиёвский проезд",
        "amenity": "fuel",
        "name": "Прогресс"
    }
}
,
{
    "lat": 47.2837022,
    "lon": 39.7211508,
    "tags": {
        "amenity": "fuel",
        "name": "ТНК"
    }
}
,
{
    "lat": 47.2722147,
    "lon": 39.7254606,
    "tags": {
        "amenity": "parking"
    }
}
,
{
    "lat": 47.2956617,
    "lon": 39.7184559,
    "tags": {
        "amenity": "fast_food",
        "name": "Пиццерия",
        "opening_hours": "Mo-Su 11:00-23:00"
    }
}
,
{
    "lat": 47.2621083,
    "lon": 39.7179982,
    "tags": {
        "amenity": "waste_disposal"
    }
}
,
{
    "lat": 47.231292,
    "lon": 39.7088832,
    "tags": {
        "amenity": "nightclub",
        "name": "КАРАОКЕ КЛУБ ГОЛОС",
        "opening_hours": "20:00-05:00",
        "phone": "250-01-02",
        "website": "https://geometria.ru/karaoke-klub-golos"
    }
}
,
{
    "lat": 47.2314547,
    "lon": 39.7621885,
    "tags": {
        "amenity": "cafe"
    }
}
,
{
    "lat": 47.2315034,
    "lon": 39.749333,
    "tags": {
        "amenity": "library",
        "name": "Пушкинская"
    }
}
,
{
    "lat": 47.2318747,
    "lon": 39.7618486,
    "tags": {
        "amenity": "pharmacy"
    }
}
,
{
    "lat": 47.2199801,
    "lon": 39.7060835,
    "tags": {
        "amenity": "bank",
        "contact:website": "https://www.sberbank.ru",
        "name": "Сбербанк",
        "opening_hours": "Mo-Fr 08:30-18:00; Sa 09:00-16:00",
        "website": "https://www.sberbank.ru/"
    }
}
,
{
    "lat": 47.2370507,
    "lon": 39.6008765,
    "tags": {
        "amenity": "fuel"
    }
}
,
{
    "lat": 47.2347714,
    "lon": 39.7045195,
    "tags": {
        "amenity": "bank",
        "contact:website": "https://www.sberbank.ru",
        "name": "Сбербанк",
        "website": "https://www.sberbank.ru/"
    }
}
,
{
    "lat": 47.2349055,
    "lon": 39.7043617,
    "tags": {
        "amenity": "cafe",
        "name": "Кардиган"
    }
}
,
{
    "lat": 47.2725709,
    "lon": 39.7188082,
    "tags": {
        "amenity": "car_wash"
    }
}
,
{
    "lat": 47.2204641,
    "lon": 39.7241074,
    "tags": {
        "amenity": "hospital",
        "name": "Центр по профилактике и борьбе со СПИДом и инфекционными заболеваниями Ростовской области"
    }
}
,
{
    "lat": 47.2599526,
    "lon": 39.7174002,
    "tags": {
        "addr:street": "проспект Михаила Нагибина",
        "amenity": "bank",
        "contact:website": "https://www.sberbank.ru",
        "name": "Сбербанк"
    }
}
,
{
    "lat": 47.2595638,
    "lon": 39.7171877,
    "tags": {
        "amenity": "pharmacy",
        "name": "Нектар",
        "opening_hours": "24/7"
    }
}
,
{
    "lat": 47.2195877,
    "lon": 39.7029618,
    "tags": {
        "addr:street": "Большая Садовая улица",
        "amenity": "police",
        "name": "ГУ МВД России по Ростовской области",
        "phone": "8(863)2493401",
        "website": "http://61.мвд.рф"
    }
}
,
{
    "lat": 47.2197261,
    "lon": 39.7036913,
    "tags": {
        "amenity": "police",
        "name": "УФСБ по Ростовской области"
    }
}
,
{
    "lat": 47.2186013,
    "lon": 39.7016827,
    "tags": {
        "amenity": "college",
        "name": "Автодорожный колледж"
    }
}
,
{
    "lat": 47.2196842,
    "lon": 39.7069133,
    "tags": {
        "amenity": "college",
        "name": "Консерватория"
    }
}
,
{
    "lat": 47.2198877,
    "lon": 39.7045,
    "tags": {
        "amenity": "university",
        "name": "Педогогический университет ЮФУ"
    }
}
,
{
    "lat": 47.2603165,
    "lon": 39.7169784,
    "tags": {
        "amenity": "fast_food",
        "building": "kiosk"
    }
}
,
{
    "lat": 47.2593049,
    "lon": 39.7170523,
    "tags": {
        "amenity": "pharmacy",
        "name": "Юг-Фарма"
    }
}
,
{
    "lat": 47.2198092,
    "lon": 39.6994987,
    "tags": {
        "addr:street": "Братский переулок",
        "amenity": "bank",
        "contact:website": "https://www.sberbank.ru",
        "name": "Сбербанк",
        "opening_hours": "Mo-Fr 09:00-16:30"
    }
}
,
{
    "lat": 47.2308746,
    "lon": 39.7250783,
    "tags": {
        "amenity": "veterinary"
    }
}
,
{
    "lat": 47.3025533,
    "lon": 39.6950829,
    "tags": {
        "amenity": "parking"
    }
}
,
{
    "lat": 47.2293813,
    "lon": 39.6822565,
    "tags": {
        "amenity": "pharmacy"
    }
}
,
{
    "lat": 47.2279731,
    "lon": 39.6875575,
    "tags": {
        "amenity": "pharmacy"
    }
}
,
{
    "lat": 47.2649998,
    "lon": 39.7201024,
    "tags": {
        "amenity": "dentist",
        "name": "Дентал-Медиа",
        "opening_hours": "Mo-Sa 09:00-20:00; Su 10:00-18:00",
        "phone": "8 863 2458567",
        "website": "http://dental-media.ru"
    }
}
,
{
    "lat": 47.2151619,
    "lon": 39.7088993,
    "tags": {
        "addr:street": "Будённовский проспект",
        "amenity": "bank",
        "contact:website": "https://www.sberbank.ru",
        "name": "Сбербанк",
        "opening_hours": "Mo-Fr 08:30-18:00; Sa 08:30-16:00"
    }
}
,
{
    "lat": 47.2179333,
    "lon": 39.6983796,
    "tags": {
        "addr:street": "Большая Садовая улица",
        "amenity": "bank",
        "contact:website": "https://www.sberbank.ru",
        "name": "Сбербанк",
        "opening_hours": "Mo-Fr 08:00-18:00; Sa 09:00-16:00"
    }
}
,
{
    "lat": 47.2218538,
    "lon": 39.7168362,
    "tags": {
        "addr:street": "Большая Садовая улица",
        "amenity": "bank",
        "contact:website": "https://www.sberbank.ru",
        "name": "Сбербанк",
        "opening_hours": "Mo 08:00-18:00; Tu-Sa 08:00-19:00"
    }
}
,
{
    "lat": 47.2232631,
    "lon": 39.7234185,
    "tags": {
        "addr:street": "Большая Садовая улица",
        "amenity": "bank",
        "building": "yes",
        "contact:website": "https://www.sberbank.ru",
        "name": "Сбербанк",
        "opening_hours": "Mo-Fr 10:00-18:30; Sa 09:30-17:30",
        "phone": "+7-863-3030836",
        "website": "https://www.sberbank.ru/"
    }
}
,
{
    "lat": 47.2262636,
    "lon": 39.7256648,
    "tags": {
        "addr:street": "Университетский переулок",
        "amenity": "bank",
        "contact:website": "https://www.sberbank.ru",
        "name": "Сбербанк",
        "opening_hours": "Mo-Fr 09:45-13:00,14:00-18:45"
    }
}
,
{
    "lat": 47.2268682,
    "lon": 39.7407894,
    "tags": {
        "addr:street": "Большая Садовая улица",
        "amenity": "bank",
        "contact:website": "https://www.sberbank.ru",
        "name": "Сбербанк",
        "opening_hours": "Mo-Fr 09:00-18:00; Sa 09:00-16:00",
        "phone": "+7-863-2635440",
        "website": "https://www.sberbank.ru/"
    }
}
,
{
    "lat": 47.2272982,
    "lon": 39.7660318,
    "tags": {
        "addr:street": "23-я линия",
        "amenity": "bank",
        "contact:website": "https://www.sberbank.ru",
        "name": "Сбербанк",
        "opening_hours": "Mo-Fr 09:00-17:00; Sa 09:00-16:45"
    }
}
,
{
    "lat": 47.2385775,
    "lon": 39.7585091,
    "tags": {
        "amenity": "bank",
        "contact:website": "https://www.sberbank.ru",
        "name": "Сбербанк",
        "opening_hours": "Mo-Fr 09:00-18:30; Sa 09:00-16:30"
    }
}
,
{
    "lat": 47.2399843,
    "lon": 39.7711651,
    "tags": {
        "addr:street": "Буйнакская улица",
        "amenity": "bank",
        "contact:website": "https://www.sberbank.ru",
        "name": "Сбербанк",
        "opening_hours": "Mo-Th 10:00-13:00,14:00-18:00; Fr 10:00-13:00,14:00-17:00",
        "phone": "+7-863-2518727",
        "website": "https://www.sberbank.ru/"
    }
}
,
{
    "lat": 47.224748,
    "lon": 39.7304963,
    "tags": {
        "addr:street": "Большая Садовая улица",
        "amenity": "bank",
        "name": "Home Credit Bank"
    }
}
,
{
    "lat": 47.2254464,
    "lon": 39.7295907,
    "tags": {
        "addr:street": "Большая Садовая улица",
        "amenity": "bank",
        "name": "Citi Bank"
    }
}
,
{
    "lat": 47.2248902,
    "lon": 39.7293864,
    "tags": {
        "addr:street": "Большая Садовая улица",
        "amenity": "bank",
        "contact:website": "https://www.sberbank.ru",
        "name": "Сбербанк",
        "opening_hours": "Mo-Fr 09:00-19:00; Sa 09:00-15:30",
        "phone": "+7-863-2061057",
        "website": "https://www.sberbank.ru/"
    }
}
,
{
    "lat": 47.212073,
    "lon": 39.637608,
    "tags": {
        "amenity": "waste_disposal"
    }
}
,
{
    "lat": 47.2076281,
    "lon": 39.6394767,
    "tags": {
        "amenity": "waste_disposal"
    }
}
,
{
    "lat": 47.2086362,
    "lon": 39.6404376,
    "tags": {
        "amenity": "waste_disposal"
    }
}
,
{
    "lat": 47.2090891,
    "lon": 39.6377834,
    "tags": {
        "amenity": "waste_disposal"
    }
}
,
{
    "lat": 47.2241105,
    "lon": 39.7183309,
    "tags": {
        "addr:street": "Ворошиловский проспект",
        "amenity": "restaurant",
        "name": "Рис",
        "website": "https://rris.ru/"
    }
}
,
{
    "lat": 47.2967244,
    "lon": 39.7135565,
    "tags": {
        "amenity": "bank",
        "contact:website": "https://www.sberbank.ru",
        "name": "Сбербанк",
        "opening_hours": "Mo-Fr 08:00-19:00; Sa 08:00-16:00"
    }
}
,
{
    "lat": 47.2916564,
    "lon": 39.713407,
    "tags": {
        "amenity": "bank",
        "contact:website": "https://www.vtb.ru",
        "name": "ВТБ"
    }
}
,
{
    "lat": 47.2259185,
    "lon": 39.7169068,
    "tags": {
        "addr:street": "Ворошиловский проспект",
        "amenity": "pub",
        "name": "Добрый Эль"
    }
}
,
{
    "lat": 47.2124496,
    "lon": 39.6155157,
    "tags": {
        "addr:street": "проспект Стачки",
        "amenity": "bank",
        "contact:website": "https://www.sberbank.ru",
        "name": "Сбербанк",
        "opening_hours": "Mo 08:00-18:00; Tu-Sa 08:00-19:00"
    }
}
,
{
    "lat": 47.2321494,
    "lon": 39.6919595,
    "tags": {
        "addr:street": "Доломановский переулок",
        "amenity": "bank",
        "contact:website": "https://www.sberbank.ru",
        "name": "Сбербанк",
        "opening_hours": "Mo-Th 09:00-17:00; Fr 09:00-16:00"
    }
}
,
{
    "lat": 47.2652345,
    "lon": 39.7191952,
    "tags": {
        "addr:street": "улица Нариманова",
        "amenity": "bank",
        "contact:website": "https://www.sberbank.ru",
        "name": "Сбербанк",
        "opening_hours": "Mo-Tu,Th-Fr 09:30-19:00; We 09:30-18:00; Sa 09:30-17:00"
    }
}
,
{
    "lat": 47.211474,
    "lon": 39.6180135,
    "tags": {
        "addr:street": "проспект Стачки",
        "amenity": "pharmacy",
        "name": "Дешевая Аптека",
        "opening_hours": "8:00-21:00"
    }
}
,
{
    "lat": 47.2829041,
    "lon": 39.7149905,
    "tags": {
        "amenity": "bank",
        "contact:website": "https://www.sberbank.ru",
        "name": "Сбербанк",
        "opening_hours": "Mo-Fr 08:00-19:00; Sa 08:00-16:00",
        "phone": "+7-863-2330029",
        "website": "https://www.sberbank.ru/"
    }
}
,
{
    "lat": 47.2886903,
    "lon": 39.6953955,
    "tags": {
        "amenity": "bank",
        "contact:website": "https://www.sberbank.ru",
        "name": "Сбербанк",
        "opening_hours": "Mo-Fr 08:30-18:00; Sa 08:30-17:00",
        "phone": "+7-863-2183863",
        "website": "https://www.sberbank.ru/"
    }
}
,
{
    "lat": 47.2366913,
    "lon": 39.7525582,
    "tags": {
        "amenity": "place_of_worship",
        "name": "Могила старца Иоанна"
    }
}
,
{
    "lat": 47.2474217,
    "lon": 39.7433173,
    "tags": {
        "amenity": "hospital",
        "name": "Южный окружной медицинский центр ФМБА России"
    }
}
,
{
    "lat": 47.2075625,
    "lon": 39.6306419,
    "tags": {
        "addr:street": "Коммунистический проспект",
        "amenity": "post_office",
        "contact:website": "https://www.pochta.ru",
        "name": "Ростов-на-Дону 344091",
        "opening_hours": "Mo-Fr 08:00-20:00; Sa 09:00-18:00; Su 09:00-14:00",
        "website": "https://www.pochta.ru/"
    }
}
,
{
    "lat": 47.2396148,
    "lon": 39.8302336,
    "tags": {
        "addr:street": "проспект 40-летия Победы",
        "amenity": "post_office",
        "contact:website": "https://www.pochta.ru",
        "name": "Ростов-на-Дону 344111",
        "opening_hours": "Mo-Fr 08:00-13:00,14:00-20:00; Sa 09:00-13:00,14:00-18:00; Su off",
        "website": "https://www.pochta.ru/"
    }
}
,
{
    "lat": 47.2259127,
    "lon": 39.7204844,
    "tags": {
        "addr:street": "проспект Соколова",
        "amenity": "cafe",
        "name": "Свободное пространство Циферблат",
        "website": "facebook.com/ziferblatrnd"
    }
}
,
{
    "lat": 47.2377971,
    "lon": 39.8122708,
    "tags": {
        "amenity": "pharmacy",
        "name": "Круглосуточная аптека",
        "opening_hours": "24/7"
    }
}
,
{
    "lat": 47.2982866,
    "lon": 39.7418263,
    "tags": {
        "amenity": "fountain"
    }
}
,
{
    "lat": 47.2560696,
    "lon": 39.7883242,
    "tags": {
        "amenity": "post_office",
        "contact:website": "https://www.pochta.ru",
        "name": "Ростов-на-Дону 344112",
        "opening_hours": "Mo-Fr 08:00-13:00,14:00-20:00; Sa 09:00-13:00,14:00-18:00; Su off",
        "website": "https://www.pochta.ru/"
    }
}
,
{
    "lat": 47.2894709,
    "lon": 39.7092194,
    "tags": {
        "addr:street": "бульвар Комарова",
        "amenity": "restaurant",
        "name": "Шале",
        "opening_hours": "12:00-02:00",
        "phone": "210-22-23",
        "website": "www.chalet-restaurant.ru"
    }
}
,
{
    "lat": 47.2289904,
    "lon": 39.7162328,
    "tags": {
        "amenity": "bank"
    }
}
,
{
    "lat": 47.2350346,
    "lon": 39.7013012,
    "tags": {
        "addr:street": "Будённовский проспект",
        "amenity": "post_office",
        "contact:website": "https://www.pochta.ru",
        "name": "Ростов-на-Дону 344018",
        "opening_hours": "Mo-Fr 08:00-13:00,14:00-20:00; Sa 09:00-13:00,14:00-18:00; Su off",
        "website": "https://www.pochta.ru/"
    }
}
,
{
    "lat": 47.203771,
    "lon": 39.6341654,
    "tags": {
        "amenity": "waste_disposal"
    }
}
,
{
    "lat": 47.2301416,
    "lon": 39.7350228,
    "tags": {
        "amenity": "post_office",
        "contact:website": "https://www.pochta.ru",
        "name": "Ростов-на-Дону 344022",
        "opening_hours": "Mo-Fr 08:00-20:00; Sa 09:00-18:00; Su 09:00-14:00",
        "website": "https://www.pochta.ru/"
    }
}
,
{
    "lat": 47.2599073,
    "lon": 39.7175218,
    "tags": {
        "amenity": "fast_food",
        "building": "yes",
        "name": "Вкуснолюбов",
        "opening_hours": "Mo-Su 08:00-21:30"
    }
}
,
{
    "lat": 47.249849,
    "lon": 39.7648965,
    "tags": {
        "amenity": "bank",
        "name": "МДМ Банк"
    }
}
,
{
    "lat": 47.249864,
    "lon": 39.764896,
    "tags": {
        "amenity": "atm"
    }
}
,
{
    "lat": 47.2617625,
    "lon": 39.7154436,
    "tags": {
        "amenity": "waste_disposal"
    }
}
,
{
    "lat": 47.2332675,
    "lon": 39.7362567,
    "tags": {
        "amenity": "restaurant",
        "name": "Хлеб и сало"
    }
}
,
{
    "lat": 47.2586463,
    "lon": 39.7186106,
    "tags": {
        "amenity": "restaurant",
        "name": "Рис"
    }
}
,
{
    "lat": 47.2335133,
    "lon": 39.737269,
    "tags": {
        "amenity": "car_wash",
        "name": "Рубин"
    }
}
,
{
    "lat": 47.2645195,
    "lon": 39.7170542,
    "tags": {
        "amenity": "waste_disposal"
    }
}
,
{
    "lat": 47.2654646,
    "lon": 39.7202097,
    "tags": {
        "amenity": "pharmacy"
    }
}
,
{
    "lat": 47.2664518,
    "lon": 39.7201789,
    "tags": {
        "amenity": "police",
        "name": "Отделение полиции №1"
    }
}
,
{
    "lat": 47.2048026,
    "lon": 39.765469,
    "tags": {
        "amenity": "restaurant",
        "name": "ТЕТ-А-ТЕТ"
    }
}
,
{
    "lat": 47.2375612,
    "lon": 39.8122347,
    "tags": {
        "amenity": "car_wash",
        "name": "Автомойка",
        "opening_hours": "24/7"
    }
}
,
{
    "lat": 47.2280328,
    "lon": 39.7142933,
    "tags": {
        "amenity": "bank",
        "contact:website": "https://alfabank.ru",
        "name": "Альфа-Банк",
        "opening_hours": "Mo-Fr 09:00-20:00; Sa 09:00-18:00; Su off"
    }
}
,
{
    "lat": 47.2263344,
    "lon": 39.7136946,
    "tags": {
        "amenity": "bank",
        "contact:website": "https://www.bm.ru",
        "name": "ВТБ Банк Москвы"
    }
}
,
{
    "lat": 47.2480317,
    "lon": 39.7124274,
    "tags": {
        "amenity": "parking_entrance"
    }
}
,
{
    "lat": 47.2051134,
    "lon": 39.764464,
    "tags": {
        "amenity": "restaurant",
        "name": "Охотничий клуб"
    }
}
,
{
    "lat": 47.20453,
    "lon": 39.7662587,
    "tags": {
        "amenity": "restaurant",
        "name": "Аверон"
    }
}
,
{
    "lat": 47.2204086,
    "lon": 39.7224109,
    "tags": {
        "amenity": "waste_basket"
    }
}
,
{
    "lat": 47.2239294,
    "lon": 39.7208641,
    "tags": {
        "amenity": "parking"
    }
}
,
{
    "lat": 47.2264455,
    "lon": 39.7172583,
    "tags": {
        "amenity": "pharmacy",
        "name": "Юг-Фарма"
    }
}
,
{
    "lat": 47.223733,
    "lon": 39.7183226,
    "tags": {
        "amenity": "parking"
    }
}
,
{
    "lat": 47.2292777,
    "lon": 39.7158915,
    "tags": {
        "amenity": "parking"
    }
}
,
{
    "lat": 47.230172,
    "lon": 39.71563,
    "tags": {
        "amenity": "pharmacy",
        "name": "Спортивная аптека №2",
        "phone": "8 863 2321994",
        "shop": "supplements",
        "website": "https://pitaniesportivnoe.su/"
    }
}
,
{
    "lat": 47.2467927,
    "lon": 39.7531946,
    "tags": {
        "amenity": "car_wash",
        "opening_hours": "24/7"
    }
}
,
{
    "lat": 47.2227308,
    "lon": 39.7061698,
    "tags": {
        "amenity": "university",
        "name": "Институт архитектуры и искусств",
        "website": "http://raai.sfedu.ru/"
    }
}
,
{
    "lat": 47.2557247,
    "lon": 39.7086523,
    "tags": {
        "amenity": "bank",
        "contact:website": "https://www.sberbank.ru",
        "name": "Сбербанк",
        "website": "https://www.sberbank.ru/"
    }
}
,
{
    "lat": 47.2598246,
    "lon": 39.7072515,
    "tags": {
        "amenity": "car_wash"
    }
}
,
{
    "lat": 47.2626542,
    "lon": 39.7058929,
    "tags": {
        "amenity": "car_wash",
        "shop": "car"
    }
}
,
{
    "lat": 47.2642418,
    "lon": 39.7139687,
    "tags": {
        "amenity": "parking"
    }
}
,
{
    "lat": 47.2659263,
    "lon": 39.7109983,
    "tags": {
        "addr:street": "Краснокурсантская улица",
        "amenity": "car_wash"
    }
}
,
{
    "lat": 47.281306,
    "lon": 39.7174338,
    "tags": {
        "amenity": "cinema",
        "name": "Киномакс-Чарли",
        "website": "https://kinomax.ru/"
    }
}
,
{
    "lat": 47.2376015,
    "lon": 39.720174,
    "tags": {
        "amenity": "car_wash"
    }
}
,
{
    "lat": 47.2824602,
    "lon": 39.7077783,
    "tags": {
        "amenity": "post_box",
        "website": "https://www.pochta.ru/"
    }
}
,
{
    "lat": 47.22786,
    "lon": 39.7388148,
    "tags": {
        "amenity": "doctors",
        "name": "Поликлиника"
    }
}
,
{
    "lat": 47.2711287,
    "lon": 39.8095284,
    "tags": {
        "amenity": "post_office",
        "contact:website": "https://www.pochta.ru",
        "name": "Ростов-на-Дону 344094",
        "opening_hours": "Mo-Fr 08:00-13:00,14:00-20:00; Sa 09:00-13:00,14:00-18:00; Su off",
        "website": "https://www.pochta.ru/"
    }
}
,
{
    "lat": 47.2309524,
    "lon": 39.7617047,
    "tags": {
        "amenity": "pharmacy"
    }
}
,
{
    "lat": 47.2597628,
    "lon": 39.7191551,
    "tags": {
        "amenity": "bicycle_parking"
    }
}
,
{
    "lat": 47.2633148,
    "lon": 39.715847,
    "tags": {
        "amenity": "waste_basket"
    }
}
,
{
    "lat": 47.2824988,
    "lon": 39.685602,
    "tags": {
        "addr:street": "улица Вавилова",
        "amenity": "fuel",
        "name": "Метан ДонГазСнаб Ростов"
    }
}
,
{
    "lat": 47.2369879,
    "lon": 39.7042078,
    "tags": {
        "amenity": "bank",
        "contact:website": "https://www.sberbank.ru",
        "name": "Сбербанк",
        "opening_hours": "Mo-Fr 08:00-19:00; Sa 08:00-16:00",
        "website": "https://www.sberbank.ru/"
    }
}
,
{
    "lat": 47.2206875,
    "lon": 39.6930277,
    "tags": {
        "amenity": "toilets"
    }
}
,
{
    "lat": 47.2620871,
    "lon": 39.7193284,
    "tags": {
        "amenity": "bicycle_parking"
    }
}
,
{
    "lat": 47.262153,
    "lon": 39.7197942,
    "tags": {
        "amenity": "bicycle_parking"
    }
}
,
{
    "lat": 47.2178029,
    "lon": 39.6950454,
    "tags": {
        "amenity": "fast_food",
        "name": "Вкуснолюбов"
    }
}
,
{
    "lat": 47.233024,
    "lon": 39.7309627,
    "tags": {
        "amenity": "waste_basket"
    }
}
,
{
    "lat": 47.2331256,
    "lon": 39.730937,
    "tags": {
        "amenity": "bicycle_parking"
    }
}
,
{
    "lat": 47.2332922,
    "lon": 39.7308618,
    "tags": {
        "amenity": "bicycle_parking"
    }
}
,
{
    "lat": 47.2333971,
    "lon": 39.7307872,
    "tags": {
        "amenity": "waste_basket"
    }
}
,
{
    "lat": 47.2721842,
    "lon": 39.683678,
    "tags": {
        "amenity": "fuel"
    }
}
,
{
    "lat": 47.2253103,
    "lon": 39.7288696,
    "tags": {
        "addr:street": "улица Суворова",
        "amenity": "bicycle_rental",
        "name": "Городская служба проката велосипедов",
        "opening_hours": "24/7",
        "phone": "+7 903 4064326",
        "shop": "rental",
        "website": "http://www.prokatvrostove.ru"
    }
}
,
{
    "lat": 47.2337932,
    "lon": 39.7310409,
    "tags": {
        "amenity": "car_wash"
    }
}
,
{
    "lat": 47.2681087,
    "lon": 39.6833952,
    "tags": {
        "amenity": "doctors",
        "name": "Клиника Евродон"
    }
}
,
{
    "lat": 47.2560452,
    "lon": 39.7105088,
    "tags": {
        "amenity": "veterinary",
        "name": "Доктор Айболит",
        "opening_hours": "Mo-Su 09:00-20:00",
        "phone": "8 863 2305030",
        "shop": "pet",
        "website": "https://doktor-aibolit.net/"
    }
}
,
{
    "lat": 47.2831955,
    "lon": 39.719287,
    "tags": {
        "amenity": "veterinary",
        "opening_hours": "Mo-Su 09:00-21:00",
        "phone": "8 863 2310910",
        "shop": "pet",
        "website": "https://doktor-aibolit.net/"
    }
}
,
{
    "lat": 47.2205053,
    "lon": 39.703251,
    "tags": {
        "amenity": "dentist",
        "name": "Стомадент"
    }
}
,
{
    "lat": 47.2286959,
    "lon": 39.6926355,
    "tags": {
        "amenity": "dentist",
        "name": "Стомадент"
    }
}
,
{
    "lat": 47.207906,
    "lon": 39.6405851,
    "tags": {
        "amenity": "veterinary",
        "shop": "pet"
    }
}
,
{
    "lat": 47.2079709,
    "lon": 39.6413159,
    "tags": {
        "amenity": "pharmacy"
    }
}
,
{
    "lat": 47.2397176,
    "lon": 39.7137852,
    "tags": {
        "amenity": "bench"
    }
}
,
{
    "lat": 47.2397442,
    "lon": 39.713786,
    "tags": {
        "amenity": "waste_basket"
    }
}
,
{
    "lat": 47.2398109,
    "lon": 39.7137841,
    "tags": {
        "amenity": "waste_basket"
    }
}
,
{
    "lat": 47.2214874,
    "lon": 39.706582,
    "tags": {
        "amenity": "restaurant",
        "name": "Сицилия пиццерия"
    }
}
,
{
    "lat": 47.2085478,
    "lon": 39.6314378,
    "tags": {
        "amenity": "bank",
        "name": "Русский Стандарт"
    }
}
,
{
    "lat": 47.2341265,
    "lon": 39.701712,
    "tags": {
        "amenity": "restaurant",
        "name": "Хлеб и сало"
    }
}
,
{
    "lat": 47.225124,
    "lon": 39.7159001,
    "tags": {
        "amenity": "restaurant",
        "name": "Силла"
    }
}
,
{
    "lat": 47.285595,
    "lon": 39.7148286,
    "tags": {
        "amenity": "pharmacy"
    }
}
,
{
    "lat": 47.2477632,
    "lon": 39.6966308,
    "tags": {
        "amenity": "fuel",
        "name": "АГЗС"
    }
}
,
{
    "lat": 47.2252322,
    "lon": 39.6838807,
    "tags": {
        "amenity": "waste_disposal"
    }
}
,
{
    "lat": 47.2279173,
    "lon": 39.6816039,
    "tags": {
        "amenity": "car_wash",
        "shop": "tyres"
    }
}
,
{
    "lat": 47.2325081,
    "lon": 39.6942633,
    "tags": {
        "amenity": "car_wash"
    }
}
,
{
    "lat": 47.2254287,
    "lon": 39.6953633,
    "tags": {
        "amenity": "parking"
    }
}
,
{
    "lat": 47.225707,
    "lon": 39.6956781,
    "tags": {
        "amenity": "parking"
    }
}
,
{
    "lat": 47.2269188,
    "lon": 39.6949682,
    "tags": {
        "amenity": "waste_disposal"
    }
}
,
{
    "lat": 47.2280336,
    "lon": 39.6945823,
    "tags": {
        "amenity": "pharmacy"
    }
}
,
{
    "lat": 47.2292179,
    "lon": 39.6938576,
    "tags": {
        "amenity": "post_box"
    }
}
,
{
    "lat": 47.230583,
    "lon": 39.6929489,
    "tags": {
        "amenity": "waste_disposal"
    }
}
,
{
    "lat": 47.218315,
    "lon": 39.7081119,
    "tags": {
        "amenity": "fast_food",
        "contact:website": "https://burgerkingrus.ru/",
        "name": "Бургер Кинг",
        "opening_hours": "Mo-Su 08:00-23:00"
    }
}
,
{
    "lat": 47.260692,
    "lon": 39.7214165,
    "tags": {
        "amenity": "fast_food",
        "contact:website": "https://burgerkingrus.ru/",
        "name": "Бургер Кинг",
        "opening_hours": "Mo-Su 10:00-22:00"
    }
}
,
{
    "lat": 47.2586072,
    "lon": 39.7188014,
    "tags": {
        "amenity": "bank",
        "name": "Кедр"
    }
}
,
{
    "lat": 47.2551575,
    "lon": 39.7177342,
    "tags": {
        "amenity": "bicycle_parking"
    }
}
,
{
    "lat": 47.2551601,
    "lon": 39.7177189,
    "tags": {
        "amenity": "bicycle_parking"
    }
}
,
{
    "lat": 47.2596925,
    "lon": 39.7193054,
    "tags": {
        "amenity": "bicycle_parking"
    }
}
,
{
    "lat": 47.2623702,
    "lon": 39.7186928,
    "tags": {
        "amenity": "bank",
        "contact:website": "https://www.vtb.ru",
        "name": "ВТБ"
    }
}
,
{
    "lat": 47.2595754,
    "lon": 39.7185341,
    "tags": {
        "amenity": "bank",
        "name": "Донкомбанк"
    }
}
,
{
    "lat": 47.2117107,
    "lon": 39.6478858,
    "tags": {
        "amenity": "dentist"
    }
}
,
{
    "lat": 47.2125743,
    "lon": 39.6494072,
    "tags": {
        "amenity": "car_wash"
    }
}
,
{
    "lat": 47.2560722,
    "lon": 39.6866373,
    "tags": {
        "amenity": "recycling"
    }
}
,
{
    "lat": 47.2697713,
    "lon": 39.6793095,
    "tags": {
        "amenity": "recycling"
    }
}
,
{
    "lat": 47.2698077,
    "lon": 39.6794704,
    "tags": {
        "amenity": "recycling"
    }
}
,
{
    "lat": 47.2985618,
    "lon": 39.6906843,
    "tags": {
        "amenity": "car_wash",
        "name": "Универсал",
        "opening_hours": "24/7"
    }
}
,
{
    "lat": 47.2187381,
    "lon": 39.7144092,
    "tags": {
        "addr:street": "переулок Семашко",
        "amenity": "fast_food",
        "name": "Вкуснолюбов"
    }
}
,
{
    "lat": 47.2342041,
    "lon": 39.7141377,
    "tags": {
        "amenity": "bench"
    }
}
,
{
    "lat": 47.2343038,
    "lon": 39.7138618,
    "tags": {
        "amenity": "bench"
    }
}
,
{
    "lat": 47.3043072,
    "lon": 39.7450439,
    "tags": {
        "amenity": "fast_food"
    }
}
,
{
    "lat": 47.2532118,
    "lon": 39.7650548,
    "tags": {
        "amenity": "bank",
        "contact:website": "https://www.sberbank.ru",
        "name": "Сбербанк",
        "opening_hours": "Mo-Fr 08:00-19:00; Sa 08:00-16:00"
    }
}
,
{
    "lat": 47.2148546,
    "lon": 39.6167788,
    "tags": {
        "addr:street": "улица Жмайлова",
        "amenity": "cafe",
        "name": "Золотой Колос",
        "opening_hours": "08:00-21:00",
        "shop": "confectionery",
        "website": "http://www.zolotoykolos.ru/"
    }
}
,
{
    "lat": 47.2233992,
    "lon": 39.7168744,
    "tags": {
        "addr:street": "улица Суворова",
        "amenity": "cafe",
        "name": "Арбуз",
        "website": "https://vk.com/antikafearbuz"
    }
}
,
{
    "lat": 47.2205875,
    "lon": 39.7108743,
    "tags": {
        "amenity": "cafe",
        "name": "Антикафе \"Улей\"",
        "phone": "8 938 1031748"
    }
}
,
{
    "lat": 47.3013751,
    "lon": 39.719837,
    "tags": {
        "amenity": "cafe",
        "name": "Три самурая"
    }
}
,
{
    "lat": 47.2269093,
    "lon": 39.7430284,
    "tags": {
        "amenity": "cafe",
        "name": "Пить Кофе"
    }
}
,
{
    "lat": 47.2271188,
    "lon": 39.7421111,
    "tags": {
        "amenity": "pharmacy"
    }
}
,
{
    "lat": 47.2254142,
    "lon": 39.7339113,
    "tags": {
        "amenity": "pharmacy",
        "name": "Аптека \"Фармация\""
    }
}
,
{
    "lat": 47.223667,
    "lon": 39.723676,
    "tags": {
        "amenity": "pharmacy",
        "name": "Юг Фарма"
    }
}
,
{
    "lat": 47.231691,
    "lon": 39.7027806,
    "tags": {
        "amenity": "cafe",
        "name": "Ложка - Поварёшка",
        "opening_hours": "08:30-20:00"
    }
}
,
{
    "lat": 47.2571353,
    "lon": 39.7168365,
    "tags": {
        "amenity": "clock"
    }
}
,
{
    "lat": 47.2033833,
    "lon": 39.7245985,
    "tags": {
        "amenity": "bicycle_parking"
    }
}
,
{
    "lat": 47.2185291,
    "lon": 39.708694,
    "tags": {
        "amenity": "bicycle_parking"
    }
}
,
{
    "lat": 47.2231492,
    "lon": 39.7181262,
    "tags": {
        "amenity": "bicycle_parking"
    }
}
,
{
    "lat": 47.2277127,
    "lon": 39.7131338,
    "tags": {
        "amenity": "bicycle_parking"
    }
}
,
{
    "lat": 47.2349254,
    "lon": 39.7130998,
    "tags": {
        "amenity": "bicycle_parking"
    }
}
,
{
    "lat": 47.2379258,
    "lon": 39.7109585,
    "tags": {
        "amenity": "bicycle_parking"
    }
}
,
{
    "lat": 47.2283922,
    "lon": 39.7268087,
    "tags": {
        "amenity": "bicycle_parking"
    }
}
,
{
    "lat": 47.2240732,
    "lon": 39.7283077,
    "tags": {
        "amenity": "bicycle_parking"
    }
}
,
{
    "lat": 47.2232993,
    "lon": 39.7286927,
    "tags": {
        "amenity": "bicycle_parking"
    }
}
,
{
    "lat": 47.2253066,
    "lon": 39.7342448,
    "tags": {
        "amenity": "bicycle_parking"
    }
}
,
{
    "lat": 47.2302648,
    "lon": 39.7391438,
    "tags": {
        "amenity": "bicycle_parking"
    }
}
,
{
    "lat": 47.2633932,
    "lon": 39.7161923,
    "tags": {
        "addr:street": "Криворожская улица",
        "amenity": "post_office",
        "contact:website": "https://www.pochta.ru",
        "name": "Ростов-на-Дону 344068",
        "opening_hours": "Mo-Fr 08:00-13:00,14:00-20:00; Sa 09:00-13:00,14:00-18:00; Su off",
        "website": "https://www.pochta.ru/"
    }
}
,
{
    "lat": 47.2838499,
    "lon": 39.7153264,
    "tags": {
        "amenity": "bank",
        "contact:website": "https://alfabank.ru",
        "name": "Альфа-Банк",
        "opening_hours": "Mo-Fr 09:00-20:00; Sa 09:00-18:00; Su off"
    }
}
,
{
    "lat": 47.2033393,
    "lon": 39.619174,
    "tags": {
        "amenity": "waste_disposal"
    }
}
,
{
    "lat": 47.2039031,
    "lon": 39.6259884,
    "tags": {
        "amenity": "waste_disposal"
    }
}
,
{
    "lat": 47.2044948,
    "lon": 39.6389551,
    "tags": {
        "amenity": "waste_disposal"
    }
}
,
{
    "lat": 47.205647,
    "lon": 39.6389341,
    "tags": {
        "amenity": "waste_disposal"
    }
}
,
{
    "lat": 47.2056717,
    "lon": 39.6356087,
    "tags": {
        "amenity": "waste_disposal"
    }
}
,
{
    "lat": 47.2061128,
    "lon": 39.6410189,
    "tags": {
        "amenity": "waste_disposal"
    }
}
,
{
    "lat": 47.2634539,
    "lon": 39.7174633,
    "tags": {
        "amenity": "waste_basket"
    }
}
,
{
    "lat": 47.26347,
    "lon": 39.717524,
    "tags": {
        "amenity": "waste_basket"
    }
}
,
{
    "lat": 47.2568595,
    "lon": 39.713281,
    "tags": {
        "amenity": "waste_basket",
        "name": "Забайкальский",
        "public_transport": "platform"
    }
}
,
{
    "lat": 47.229201,
    "lon": 39.7196972,
    "tags": {
        "amenity": "bank",
        "name": "Центр-Инвест"
    }
}
,
{
    "lat": 47.2254174,
    "lon": 39.7287552,
    "tags": {
        "amenity": "bicycle_parking"
    }
}
,
{
    "lat": 47.2283753,
    "lon": 39.7267073,
    "tags": {
        "amenity": "waste_basket"
    }
}
,
{
    "lat": 47.2292504,
    "lon": 39.7196382,
    "tags": {
        "amenity": "atm"
    }
}
,
{
    "lat": 47.22928,
    "lon": 39.7196723,
    "tags": {
        "amenity": "waste_basket"
    }
}
,
{
    "lat": 47.2292491,
    "lon": 39.7192258,
    "tags": {
        "amenity": "bicycle_parking"
    }
}
,
{
    "lat": 47.2301574,
    "lon": 39.7390707,
    "tags": {
        "amenity": "bench"
    }
}
,
{
    "lat": 47.2301816,
    "lon": 39.7392097,
    "tags": {
        "amenity": "bench"
    }
}
,
{
    "lat": 47.231796,
    "lon": 39.7267254,
    "tags": {
        "amenity": "bicycle_parking"
    }
}
,
{
    "lat": 47.2109033,
    "lon": 39.6728216,
    "tags": {
        "amenity": "bicycle_parking"
    }
}
,
{
    "lat": 47.2483872,
    "lon": 39.643478,
    "tags": {
        "amenity": "bicycle_parking"
    }
}
,
{
    "lat": 47.2407437,
    "lon": 39.6990317,
    "tags": {
        "amenity": "waste_disposal"
    }
}
,
{
    "lat": 47.2513484,
    "lon": 39.7113765,
    "tags": {
        "amenity": "pharmacy",
        "name": "AMS Аптека"
    }
}
,
{
    "lat": 47.2458922,
    "lon": 39.7572583,
    "tags": {
        "amenity": "bicycle_parking"
    }
}
,
{
    "lat": 47.2459326,
    "lon": 39.757448,
    "tags": {
        "amenity": "waste_basket"
    }
}
,
{
    "lat": 47.2459399,
    "lon": 39.7574426,
    "tags": {
        "amenity": "bicycle_parking"
    }
}
,
{
    "lat": 47.2803116,
    "lon": 39.7175404,
    "tags": {
        "amenity": "bicycle_parking"
    }
}
,
{
    "lat": 47.2882552,
    "lon": 39.7060943,
    "tags": {
        "amenity": "bicycle_parking"
    }
}
,
{
    "lat": 47.2888939,
    "lon": 39.7059224,
    "tags": {
        "amenity": "bicycle_parking"
    }
}
,
{
    "lat": 47.2239058,
    "lon": 39.727449,
    "tags": {
        "amenity": "cafe",
        "name": "Джем"
    }
}
,
{
    "lat": 47.2264019,
    "lon": 39.7194657,
    "tags": {
        "amenity": "fast_food",
        "name": "Subway"
    }
}
,
{
    "lat": 47.2233376,
    "lon": 39.7278923,
    "tags": {
        "amenity": "pub",
        "name": "Харатс"
    }
}
,
{
    "lat": 47.219817,
    "lon": 39.7123953,
    "tags": {
        "amenity": "bicycle_parking"
    }
}
,
{
    "lat": 47.2229306,
    "lon": 39.7166724,
    "tags": {
        "amenity": "bicycle_parking"
    }
}
,
{
    "lat": 47.2230359,
    "lon": 39.7181661,
    "tags": {
        "amenity": "waste_basket"
    }
}
,
{
    "lat": 47.2230845,
    "lon": 39.7181458,
    "tags": {
        "amenity": "waste_basket"
    }
}
,
{
    "lat": 47.2231252,
    "lon": 39.7181295,
    "tags": {
        "amenity": "waste_basket",
        "name": "ул. Б. Садовая",
        "public_transport": "platform"
    }
}
,
{
    "lat": 47.2232889,
    "lon": 39.7279229,
    "tags": {
        "amenity": "bicycle_parking"
    }
}
,
{
    "lat": 47.2242951,
    "lon": 39.717643,
    "tags": {
        "amenity": "bicycle_parking"
    }
}
,
{
    "lat": 47.2243462,
    "lon": 39.7176247,
    "tags": {
        "amenity": "bicycle_parking"
    }
}
,
{
    "lat": 47.2250433,
    "lon": 39.7203835,
    "tags": {
        "amenity": "bicycle_parking"
    }
}
,
{
    "lat": 47.2263512,
    "lon": 39.7194886,
    "tags": {
        "amenity": "bicycle_parking"
    }
}
,
{
    "lat": 47.2034228,
    "lon": 39.7245935,
    "tags": {
        "amenity": "waste_basket"
    }
}
,
{
    "lat": 47.2034561,
    "lon": 39.724594,
    "tags": {
        "amenity": "waste_basket"
    }
}
,
{
    "lat": 47.2042234,
    "lon": 39.7245742,
    "tags": {
        "amenity": "bicycle_parking"
    }
}
,
{
    "lat": 47.2331792,
    "lon": 39.7309049,
    "tags": {
        "amenity": "bicycle_parking"
    }
}
,
{
    "lat": 47.2332335,
    "lon": 39.7308836,
    "tags": {
        "amenity": "bicycle_parking"
    }
}
,
{
    "lat": 47.198812,
    "lon": 39.7316621,
    "tags": {
        "amenity": "bicycle_parking"
    }
}
,
{
    "lat": 47.2238545,
    "lon": 39.7196246,
    "tags": {
        "amenity": "bicycle_parking"
    }
}
,
{
    "lat": 47.2912434,
    "lon": 39.7057484,
    "tags": {
        "amenity": "bench"
    }
}
,
{
    "lat": 47.2891061,
    "lon": 39.7060704,
    "tags": {
        "amenity": "atm",
        "opening_hours": "Mo-Su 08:00-00:00"
    }
}
,
{
    "lat": 47.2353924,
    "lon": 39.7379403,
    "tags": {
        "amenity": "cafe",
        "name": "Гурия",
        "opening_hours": "Mo-Su 11:00-23:00",
        "phone": "+78632923176"
    }
}
,
{
    "lat": 47.2368569,
    "lon": 39.7059133,
    "tags": {
        "amenity": "doctors",
        "name": "Новые медицинские технологии, медицинские анализы и УЗИ",
        "phone": "+78632903033"
    }
}
,
{
    "lat": 47.2286101,
    "lon": 39.7166769,
    "tags": {
        "amenity": "restaurant",
        "name": "Донская чаша"
    }
}
,
{
    "lat": 47.2802617,
    "lon": 39.768911,
    "tags": {
        "amenity": "cafe"
    }
}
,
{
    "lat": 47.2352164,
    "lon": 39.7159363,
    "tags": {
        "amenity": "post_office",
        "name": "Mail Boxes Etc.",
        "website": "http://www.mailboxesetc.ru/"
    }
}
,
{
    "lat": 47.2496193,
    "lon": 39.7010733,
    "tags": {
        "amenity": "post_office",
        "name": "Mail Boxes Etc.",
        "website": "http://www.mailboxesetc.ru/"
    }
}
,
{
    "lat": 47.2332478,
    "lon": 39.736188,
    "tags": {
        "amenity": "nightclub",
        "name": "Мёд",
        "phone": "2-666-302",
        "website": "http://nightmed.ru/"
    }
}
,
{
    "lat": 47.2212916,
    "lon": 39.7100136,
    "tags": {
        "amenity": "toilets"
    }
}
,
{
    "lat": 47.2238411,
    "lon": 39.7184315,
    "tags": {
        "amenity": "bank",
        "name": "Газпромбанк"
    }
}
,
{
    "lat": 47.2031702,
    "lon": 39.7234177,
    "tags": {
        "amenity": "bicycle_parking"
    }
}
,
{
    "lat": 47.2035594,
    "lon": 39.724792,
    "tags": {
        "amenity": "bicycle_parking"
    }
}
,
{
    "lat": 47.2169472,
    "lon": 39.6289885,
    "tags": {
        "amenity": "bicycle_parking"
    }
}
,
{
    "lat": 47.223812,
    "lon": 39.7182686,
    "tags": {
        "amenity": "bicycle_parking"
    }
}
,
{
    "lat": 47.2238195,
    "lon": 39.7182618,
    "tags": {
        "amenity": "waste_basket"
    }
}
,
{
    "lat": 47.2894027,
    "lon": 39.7047163,
    "tags": {
        "amenity": "pharmacy",
        "name": "Медтехника №1"
    }
}
,
{
    "lat": 47.2894594,
    "lon": 39.7052506,
    "tags": {
        "amenity": "dentist",
        "name": "Стоматология"
    }
}
,
{
    "lat": 47.2894477,
    "lon": 39.7051404,
    "tags": {
        "amenity": "pharmacy",
        "name": "Три Фарма"
    }
}
,
{
    "lat": 47.2560991,
    "lon": 39.7683179,
    "tags": {
        "amenity": "veterinary",
        "name": "Ветеринарная клиника"
    }
}
,
{
    "lat": 47.2826704,
    "lon": 39.7563166,
    "tags": {
        "amenity": "pharmacy",
        "name": "Легко"
    }
}
,
{
    "lat": 47.2308036,
    "lon": 39.6110396,
    "tags": {
        "amenity": "pharmacy",
        "name": "36,6"
    }
}
,
{
    "lat": 47.2487143,
    "lon": 39.7131768,
    "tags": {
        "amenity": "pharmacy",
        "name": "Радуга"
    }
}
,
{
    "lat": 47.2560508,
    "lon": 39.7682933,
    "tags": {
        "amenity": "pharmacy",
        "name": "36,6"
    }
}
