[
 {  }
,
{
    "lat": 53.2263341,
    "lon": 50.1702418,
    "tags": {
        "amenity": "hospital",
        "name": "Областная офтальмологическая клиника"
    }
}
,
{
    "lat": 53.223174,
    "lon": 50.1669858,
    "tags": {
        "amenity": "hospital",
        "name": "Областная туберкулезная им. Соловьева"
    }
}
,
{
    "lat": 53.2326499,
    "lon": 50.248496,
    "tags": {
        "amenity": "hospital",
        "name": "8-я МСЧ"
    }
}
,
{
    "lat": 53.2351853,
    "lon": 50.2675609,
    "tags": {
        "amenity": "fountain"
    }
}
,
{
    "lat": 53.2408361,
    "lon": 50.2764246,
    "tags": {
        "amenity": "police",
        "name": "МРЭО"
    }
}
,
{
    "lat": 53.2514022,
    "lon": 50.2248807,
    "tags": {
        "addr:street": "проспект Кирова",
        "amenity": "fuel",
        "name": "Олви - АЗС",
        "phone": "+79879865676",
        "website": "https://olvi-azs.ru/"
    }
}
,
{
    "lat": 53.1882463,
    "lon": 50.0785441,
    "tags": {
        "amenity": "ferry_terminal"
    }
}
,
{
    "lat": 53.1863181,
    "lon": 50.0767149,
    "tags": {
        "amenity": "ferry_terminal"
    }
}
,
{
    "lat": 53.1854735,
    "lon": 50.0758284,
    "tags": {
        "amenity": "ferry_terminal"
    }
}
,
{
    "lat": 53.1839072,
    "lon": 50.0741936,
    "tags": {
        "amenity": "ferry_terminal"
    }
}
,
{
    "lat": 53.1863292,
    "lon": 50.0836144,
    "tags": {
        "amenity": "bank",
        "name": "Сбербанк: дополнительный офис №6991/0249",
        "phone": "+7 846 3334623",
        "website": "http://sbrf.ru/"
    }
}
,
{
    "lat": 53.2176179,
    "lon": 50.188109,
    "tags": {
        "amenity": "pharmacy",
        "contact:website": "https://vitaexpress.ru/",
        "name": "Вита Экспресс",
        "opening_hours": "Mo-Fr 08:00-22:00; Sa-Su 09:00-21:00"
    }
}
,
{
    "lat": 53.2786552,
    "lon": 50.275108,
    "tags": {
        "amenity": "fuel",
        "name": "Олви"
    }
}
,
{
    "lat": 53.2758473,
    "lon": 50.2654526,
    "tags": {
        "amenity": "fuel"
    }
}
,
{
    "lat": 53.2515744,
    "lon": 50.308715,
    "tags": {
        "amenity": "fuel"
    }
}
,
{
    "lat": 53.2335444,
    "lon": 50.1805004,
    "tags": {
        "amenity": "restaurant",
        "name": "Навек родня",
        "phone": "+7 846 9798999"
    }
}
,
{
    "lat": 53.473291,
    "lon": 49.9079693,
    "tags": {
        "amenity": "festival_grounds",
        "name": "Фестиваль имени Валерия Грушина",
        "tourism": "camp_site"
    }
}
,
{
    "lat": 53.2143638,
    "lon": 50.1861009,
    "tags": {
        "amenity": "cafe",
        "name": "Акварель"
    }
}
,
{
    "lat": 53.2126182,
    "lon": 50.1822748,
    "tags": {
        "amenity": "fast_food"
    }
}
,
{
    "lat": 53.2003938,
    "lon": 50.163007,
    "tags": {
        "amenity": "police",
        "name": "Уголовно-исполнительная инспекция №7"
    }
}
,
{
    "lat": 53.1913351,
    "lon": 50.1888288,
    "tags": {
        "amenity": "pharmacy"
    }
}
,
{
    "lat": 53.1913608,
    "lon": 50.1900217,
    "tags": {
        "amenity": "fast_food",
        "name": "Макдоналдс",
        "website": "https://mcdonalds.ru/"
    }
}
,
{
    "lat": 53.1913505,
    "lon": 50.1891979,
    "tags": {
        "amenity": "restaurant",
        "name": "То Сё",
        "opening_hours": "10:00-22:00",
        "phone": "+7 846 205-52-15",
        "website": "https://toce.ru/"
    }
}
,
{
    "lat": 53.1911367,
    "lon": 50.1893276,
    "tags": {
        "amenity": "cinema"
    }
}
,
{
    "lat": 53.3201663,
    "lon": 50.2004711,
    "tags": {
        "amenity": "grave_yard",
        "name": "Могила пионера Александра Царева"
    }
}
,
{
    "lat": 53.1925825,
    "lon": 50.1655851,
    "tags": {
        "amenity": "parking"
    }
}
,
{
    "lat": 53.216302,
    "lon": 50.2085051,
    "tags": {
        "addr:street": "улица Советской Армии",
        "amenity": "cafe",
        "name": "Белый рояль"
    }
}
,
{
    "lat": 53.1996886,
    "lon": 50.1680796,
    "tags": {
        "amenity": "atm",
        "website": "https://www.sberbank.ru/"
    }
}
,
{
    "lat": 53.1874061,
    "lon": 50.1219047,
    "tags": {
        "amenity": "fast_food",
        "contact:website": "https://www.kfc.ru",
        "name": "KFC",
        "website": "http://www.kfc.ru/"
    }
}
,
{
    "lat": 53.1878944,
    "lon": 50.122243,
    "tags": {
        "amenity": "cafe",
        "name": "У Палыча"
    }
}
,
{
    "lat": 53.1878275,
    "lon": 50.1233277,
    "tags": {
        "amenity": "restaurant",
        "name": "Баба Люба"
    }
}
,
{
    "lat": 53.1878661,
    "lon": 50.123163,
    "tags": {
        "amenity": "restaurant",
        "name": "Правда Жизни"
    }
}
,
{
    "lat": 53.2106927,
    "lon": 50.1779582,
    "tags": {
        "addr:street": "Московское шоссе",
        "amenity": "fuel",
        "name": "Башнефть",
        "opening_hours": "24/7"
    }
}
,
{
    "lat": 53.1157394,
    "lon": 50.2327969,
    "tags": {
        "amenity": "place_of_worship"
    }
}
,
{
    "lat": 53.390857,
    "lon": 50.1712748,
    "tags": {
        "amenity": "parking"
    }
}
,
{
    "lat": 53.3836034,
    "lon": 50.1691462,
    "tags": {
        "amenity": "parking"
    }
}
,
{
    "lat": 53.3861118,
    "lon": 50.1708714,
    "tags": {
        "amenity": "restaurant",
        "name": "Сокол"
    }
}
,
{
    "lat": 53.3697583,
    "lon": 50.1915394,
    "tags": {
        "amenity": "restaurant",
        "name": "GoldMakena"
    }
}
,
{
    "lat": 53.3751299,
    "lon": 50.1727768,
    "tags": {
        "amenity": "restaurant",
        "name": "вася"
    }
}
,
{
    "lat": 53.3775723,
    "lon": 50.170468,
    "tags": {
        "amenity": "restaurant"
    }
}
,
{
    "lat": 53.5171435,
    "lon": 50.1375604,
    "tags": {
        "amenity": "post_box",
        "website": "https://russianpost.ru/"
    }
}
,
{
    "lat": 53.5166536,
    "lon": 50.1402383,
    "tags": {
        "amenity": "pharmacy",
        "name": "Имплозия"
    }
}
,
{
    "lat": 53.332321,
    "lon": 50.1425841,
    "tags": {
        "amenity": "ferry_terminal",
        "name": "Подгоры"
    }
}
,
{
    "lat": 53.5196464,
    "lon": 50.1385232,
    "tags": {
        "amenity": "parking"
    }
}
,
{
    "lat": 53.5099432,
    "lon": 50.1491405,
    "tags": {
        "amenity": "parking"
    }
}
,
{
    "lat": 53.5088536,
    "lon": 50.1439245,
    "tags": {
        "amenity": "taxi"
    }
}
,
{
    "lat": 53.5171629,
    "lon": 50.139791,
    "tags": {
        "amenity": "pub"
    }
}
,
{
    "lat": 53.2066169,
    "lon": 50.2286564,
    "tags": {
        "amenity": "library",
        "name": "Научно-техническая библиотека СамГУПС"
    }
}
,
{
    "lat": 53.2127109,
    "lon": 50.1777518,
    "tags": {
        "addr:street": "Московское шоссе",
        "amenity": "library",
        "name": "Библиотека Самарского университета"
    }
}
,
{
    "lat": 53.209099,
    "lon": 50.1252633,
    "tags": {
        "amenity": "library",
        "name": "Научно-техническая библиотека СамГТУ"
    }
}
,
{
    "lat": 53.2245881,
    "lon": 50.1882112,
    "tags": {
        "amenity": "library",
        "name": "Научная библиотека СамГУ"
    }
}
,
{
    "lat": 53.2260853,
    "lon": 50.1954555,
    "tags": {
        "amenity": "library",
        "name": "Научно-техническая библиотека ПГУТИ"
    }
}
,
{
    "lat": 53.2325151,
    "lon": 50.1879089,
    "tags": {
        "amenity": "library",
        "name": "Библиотека СаГА"
    }
}
,
{
    "lat": 53.1970304,
    "lon": 50.1573986,
    "tags": {
        "amenity": "fast_food",
        "name": "Шаверма STOP",
        "opening_hours": "11:00-23:00"
    }
}
,
{
    "lat": 53.1862179,
    "lon": 50.1214707,
    "tags": {
        "amenity": "atm",
        "website": "https://www.sberbank.ru/"
    }
}
,
{
    "lat": 53.1990903,
    "lon": 50.1589097,
    "tags": {
        "amenity": "veterinary",
        "name": "Областная ветеринарная лаборатория"
    }
}
,
{
    "lat": 53.2025764,
    "lon": 50.1411039,
    "tags": {
        "amenity": "restaurant",
        "name": "Планета Суши",
        "website": "http://planet-sushi.rosinter.ru/"
    }
}
,
{
    "lat": 53.200819,
    "lon": 50.142278,
    "tags": {
        "amenity": "pub",
        "name": "Friends"
    }
}
,
{
    "lat": 53.2000273,
    "lon": 50.1448872,
    "tags": {
        "amenity": "cafe",
        "name": "Люмьер"
    }
}
,
{
    "lat": 53.201221,
    "lon": 50.2184801,
    "tags": {
        "amenity": "post_box",
        "website": "https://russianpost.ru/"
    }
}
,
{
    "lat": 53.2012692,
    "lon": 50.2216933,
    "tags": {
        "amenity": "pharmacy",
        "name": "Аптека 36,6",
        "website": "https://366.ru/"
    }
}
,
{
    "lat": 53.2001863,
    "lon": 50.2217524,
    "tags": {
        "amenity": "police",
        "name": "оП №3"
    }
}
,
{
    "lat": 53.2035451,
    "lon": 50.2187582,
    "tags": {
        "amenity": "cafe",
        "name": "12 стульев Эдика"
    }
}
,
{
    "lat": 53.203423,
    "lon": 50.2187582,
    "tags": {
        "amenity": "bar"
    }
}
,
{
    "lat": 53.1968839,
    "lon": 50.1577272,
    "tags": {
        "amenity": "pharmacy",
        "name": "Алия"
    }
}
,
{
    "lat": 53.2323729,
    "lon": 50.1896045,
    "tags": {
        "amenity": "pharmacy",
        "name": "Аптека №236"
    }
}
,
{
    "lat": 53.2285998,
    "lon": 50.1932416,
    "tags": {
        "amenity": "pharmacy",
        "name": "Аптека 36,6",
        "website": "https://366.ru/"
    }
}
,
{
    "lat": 53.231066,
    "lon": 50.2485488,
    "tags": {
        "amenity": "pharmacy",
        "contact:website": "https://vitaexpress.ru/",
        "name": "Вита",
        "opening_hours": "Mo-Su 09:00-21:00"
    }
}
,
{
    "lat": 53.2332705,
    "lon": 50.2456644,
    "tags": {
        "amenity": "police",
        "name": "Кировкий РОВД"
    }
}
,
{
    "lat": 53.2568002,
    "lon": 50.2962208,
    "tags": {
        "addr:street": "Олимпийская улица",
        "amenity": "fuel",
        "name": "Башнефть",
        "opening_hours": "24/7",
        "phone": "+7 (987) 910-00-57",
        "website": "http://bashneft-azs.ru"
    }
}
,
{
    "lat": 53.127064,
    "lon": 50.2145012,
    "tags": {
        "amenity": "cafe"
    }
}
,
{
    "lat": 53.126806,
    "lon": 50.2141522,
    "tags": {
        "amenity": "parking"
    }
}
,
{
    "lat": 53.1906631,
    "lon": 50.1396501,
    "tags": {
        "amenity": "bank",
        "name": "Сбербанк: дополнительный офис №6991/0364",
        "phone": "247-45-99",
        "website": "http://sbrf.ru/"
    }
}
,
{
    "lat": 53.1907846,
    "lon": 50.1397387,
    "tags": {
        "amenity": "telephone"
    }
}
,
{
    "lat": 53.1926453,
    "lon": 50.1029563,
    "tags": {
        "amenity": "pharmacy",
        "name": "Биомед"
    }
}
,
{
    "lat": 53.2000521,
    "lon": 50.1535771,
    "tags": {
        "addr:street": "Киевская улица",
        "amenity": "pharmacy",
        "contact:website": "https://vitaexpress.ru;https://vitaexpress.ru/",
        "name": "Вита Экспресс",
        "opening_hours": "Mo-Fr 09:00-21:00;Sa-Su 10:00-20:00"
    }
}
,
{
    "lat": 53.197995,
    "lon": 50.1574541,
    "tags": {
        "amenity": "doctors",
        "name": "Поликлиника №13"
    }
}
,
{
    "lat": 53.1977097,
    "lon": 50.1565708,
    "tags": {
        "amenity": "atm",
        "website": "https://www.sberbank.ru/"
    }
}
,
{
    "lat": 53.2025155,
    "lon": 50.1409351,
    "tags": {
        "amenity": "restaurant",
        "contact:website": "https://tanukifamily.ru/tanuki/",
        "name": "Тануки",
        "opening_hours": "Mo-Sa 10:00-06:00;Su 11:00-06:00"
    }
}
,
{
    "lat": 53.2033139,
    "lon": 50.1443308,
    "tags": {
        "amenity": "bank",
        "name": "Русфинанс Банк"
    }
}
,
{
    "lat": 53.2014413,
    "lon": 50.1412042,
    "tags": {
        "amenity": "atm"
    }
}
,
{
    "lat": 53.2746966,
    "lon": 50.225748,
    "tags": {
        "amenity": "cafe"
    }
}
,
{
    "lat": 53.2741651,
    "lon": 50.2253412,
    "tags": {
        "amenity": "fuel"
    }
}
,
{
    "lat": 53.1874092,
    "lon": 50.1178883,
    "tags": {
        "amenity": "atm"
    }
}
,
{
    "lat": 53.1884997,
    "lon": 50.1197055,
    "tags": {
        "amenity": "library",
        "name": "Детская библиотека №11"
    }
}
,
{
    "lat": 53.1866776,
    "lon": 50.1179917,
    "tags": {
        "amenity": "atm"
    }
}
,
{
    "lat": 53.1909308,
    "lon": 50.2109527,
    "tags": {
        "amenity": "post_office",
        "contact:website": "https://www.pochta.ru",
        "name": "Самара 443117",
        "opening_hours": "Mo-Fr 09:00-13:00,14:00-18:00; Sa 09:00-13:00,14:00-16:00"
    }
}
,
{
    "lat": 53.2007791,
    "lon": 50.1510748,
    "tags": {
        "amenity": "atm"
    }
}
,
{
    "lat": 53.1924822,
    "lon": 50.2067837,
    "tags": {
        "amenity": "pharmacy"
    }
}
,
{
    "lat": 53.2106962,
    "lon": 50.1446036,
    "tags": {
        "addr:street": "проспект Ленина",
        "amenity": "police",
        "name": "Отдел полиции № 4"
    }
}
,
{
    "lat": 53.3026097,
    "lon": 50.2813217,
    "tags": {
        "amenity": "dentist"
    }
}
,
{
    "lat": 53.2705493,
    "lon": 50.2245645,
    "tags": {
        "amenity": "fuel",
        "name": "Газпромнефть"
    }
}
,
{
    "lat": 53.200657,
    "lon": 50.136175,
    "tags": {
        "amenity": "pharmacy",
        "name": "Вита",
        "opening_hours": "24/7"
    }
}
,
{
    "lat": 53.2003591,
    "lon": 50.1411575,
    "tags": {
        "amenity": "pharmacy",
        "name": "Вита",
        "opening_hours": "24/7",
        "phone": "+7 846 2702103"
    }
}
,
{
    "lat": 53.2129138,
    "lon": 50.1732682,
    "tags": {
        "amenity": "nightclub",
        "name": "Полёт",
        "opening_hours": "Su,Mo,Th 22:00-06:00",
        "phone": "+7(846)270-93-70",
        "website": "https://polet-club.ru/"
    }
}
,
{
    "lat": 53.2138529,
    "lon": 50.2249804,
    "tags": {
        "amenity": "restaurant",
        "name": "Стейк-хаус Крошка Молли"
    }
}
,
{
    "lat": 53.1695413,
    "lon": 50.0753377,
    "tags": {
        "amenity": "clinic",
        "name": "Поликлиника №2"
    }
}
,
{
    "lat": 53.2510316,
    "lon": 50.2242519,
    "tags": {
        "amenity": "fast_food",
        "contact:website": "https://mcdonalds.ru",
        "name": "Макдоналдс"
    }
}
,
{
    "lat": 53.1929945,
    "lon": 50.2394122,
    "tags": {
        "amenity": "bicycle_parking"
    }
}
,
{
    "lat": 53.197706,
    "lon": 50.0986566,
    "tags": {
        "amenity": "bank",
        "name": "КБ Стройкредит"
    }
}
,
{
    "lat": 53.1947808,
    "lon": 50.0958965,
    "tags": {
        "addr:street": "улица Фрунзе",
        "amenity": "university",
        "name": "СГИК",
        "opening_hours": "Mo-Sa 08:00-17:00",
        "phone": "+78463327654",
        "website": "http://smrgaki.ru"
    }
}
,
{
    "lat": 53.192412,
    "lon": 50.1060693,
    "tags": {
        "amenity": "police",
        "name": "Прокуратура Ленинского района"
    }
}
,
{
    "lat": 53.1923261,
    "lon": 50.1064472,
    "tags": {
        "amenity": "police",
        "name": "Прокуратура г. Самары"
    }
}
,
{
    "lat": 53.1939952,
    "lon": 50.1073985,
    "tags": {
        "addr:street": "Рабочая улица",
        "amenity": "courthouse",
        "name": "Самарский районный суд"
    }
}
,
{
    "lat": 53.194144,
    "lon": 50.1066957,
    "tags": {
        "amenity": "college",
        "name": "Технический лицей"
    }
}
,
{
    "lat": 53.1927658,
    "lon": 50.1065445,
    "tags": {
        "amenity": "clinic",
        "name": "Поликлиника №3"
    }
}
,
{
    "lat": 53.1860696,
    "lon": 50.0888288,
    "tags": {
        "amenity": "university",
        "name": "СИБиУ"
    }
}
,
{
    "lat": 53.1862033,
    "lon": 50.0883853,
    "tags": {
        "amenity": "bar",
        "name": "Проливошная",
        "phone": "+7 927 2666868"
    }
}
,
{
    "lat": 53.1880301,
    "lon": 50.2178736,
    "tags": {
        "amenity": "police",
        "name": "Участковый пункт полиции №13 Советского района"
    }
}
,
{
    "lat": 53.1886239,
    "lon": 50.2189474,
    "tags": {
        "amenity": "pub",
        "name": "Надежда"
    }
}
,
{
    "lat": 53.2019707,
    "lon": 50.1358141,
    "tags": {
        "amenity": "pharmacy",
        "name": "Имплозия",
        "opening_hours": "08:00-21:00"
    }
}
,
{
    "lat": 53.2980577,
    "lon": 50.2855759,
    "tags": {
        "amenity": "atm",
        "website": "https://www.sberbank.ru/"
    }
}
,
{
    "lat": 53.2981096,
    "lon": 50.2857881,
    "tags": {
        "amenity": "bank",
        "name": "Сбербанк: дополнительный офис №6991/0341",
        "phone": "957-13-39",
        "website": "https://www.sberbank.ru/"
    }
}
,
{
    "lat": 53.1275313,
    "lon": 50.1697653,
    "tags": {
        "addr:street": "Уральская улица",
        "amenity": "fuel",
        "opening_hours": "24/7"
    }
}
,
{
    "lat": 53.1867279,
    "lon": 50.1860458,
    "tags": {
        "amenity": "public_building",
        "name": "ЕИРЦ"
    }
}
,
{
    "lat": 53.211124,
    "lon": 50.1371707,
    "tags": {
        "amenity": "parking"
    }
}
,
{
    "lat": 53.210361,
    "lon": 50.1438984,
    "tags": {
        "amenity": "parking"
    }
}
,
{
    "lat": 53.2153972,
    "lon": 50.148352,
    "tags": {
        "amenity": "parking"
    }
}
,
{
    "lat": 53.210454,
    "lon": 50.1449406,
    "tags": {
        "amenity": "parking"
    }
}
,
{
    "lat": 53.2133411,
    "lon": 50.1458179,
    "tags": {
        "amenity": "parking"
    }
}
,
{
    "lat": 53.2151701,
    "lon": 50.1488568,
    "tags": {
        "amenity": "parking"
    }
}
,
{
    "lat": 53.2088585,
    "lon": 50.1371888,
    "tags": {
        "amenity": "parking"
    }
}
,
{
    "lat": 53.2154382,
    "lon": 50.1492843,
    "tags": {
        "amenity": "parking"
    }
}
,
{
    "lat": 53.2132098,
    "lon": 50.1494475,
    "tags": {
        "amenity": "parking"
    }
}
,
{
    "lat": 53.233849,
    "lon": 50.2523643,
    "tags": {
        "amenity": "pharmacy",
        "contact:website": "https://vitaexpress.ru/",
        "name": "Вита Экспресс",
        "opening_hours": "Mo-Fr 08:00-21:00;Sa-Su 09:00-21:00"
    }
}
,
{
    "lat": 53.2371085,
    "lon": 50.2129519,
    "tags": {
        "amenity": "pharmacy",
        "name": "Алия",
        "opening_hours": "Mo-Fr 08:00-20:00; Sa,Su 09:00-20:00"
    }
}
,
{
    "lat": 53.2039162,
    "lon": 50.1423107,
    "tags": {
        "amenity": "public_building",
        "name": "ФНС по Окт. и Жел. районам"
    }
}
,
{
    "lat": 53.3208678,
    "lon": 50.2966439,
    "tags": {
        "amenity": "parking"
    }
}
,
{
    "lat": 53.3205893,
    "lon": 50.3016462,
    "tags": {
        "amenity": "parking"
    }
}
,
{
    "lat": 53.29418,
    "lon": 50.2914703,
    "tags": {
        "amenity": "parking"
    }
}
,
{
    "lat": 53.201402,
    "lon": 50.141252,
    "tags": {
        "amenity": "atm"
    }
}
,
{
    "lat": 53.239354,
    "lon": 50.2139996,
    "tags": {
        "amenity": "bank",
        "name": "Сбербанк"
    }
}
,
{
    "lat": 53.2110633,
    "lon": 50.1389902,
    "tags": {
        "amenity": "clinic",
        "name": "Взрослое отделение поликлиники №9"
    }
}
,
{
    "lat": 53.2077251,
    "lon": 50.1365002,
    "tags": {
        "amenity": "pharmacy",
        "name": "Фармленд"
    }
}
,
{
    "lat": 53.2054254,
    "lon": 50.1348205,
    "tags": {
        "amenity": "parking"
    }
}
,
{
    "lat": 53.2057506,
    "lon": 50.1354562,
    "tags": {
        "amenity": "parking"
    }
}
,
{
    "lat": 53.2057516,
    "lon": 50.1409759,
    "tags": {
        "addr:street": "Радонежская улица",
        "amenity": "place_of_worship",
        "name": "Самарская Православная Духовная Семинария"
    }
}
,
{
    "lat": 53.2971162,
    "lon": 50.2861313,
    "tags": {
        "amenity": "pharmacy",
        "name": "Вита"
    }
}
,
{
    "lat": 53.3026263,
    "lon": 50.287458,
    "tags": {
        "amenity": "post_office",
        "contact:website": "https://www.pochta.ru",
        "name": "Мехзавод 443028",
        "opening_hours": "Mo-Fr 08:00-20:00; Sa-Su 09:00-18:00",
        "phone": "957-15-47"
    }
}
,
{
    "lat": 53.3023579,
    "lon": 50.2875602,
    "tags": {
        "amenity": "police",
        "name": "Отделение милиции №12"
    }
}
,
{
    "lat": 53.2494309,
    "lon": 50.18723,
    "tags": {
        "amenity": "parking"
    }
}
,
{
    "lat": 53.2250214,
    "lon": 50.1486793,
    "tags": {
        "amenity": "cafe"
    }
}
,
{
    "lat": 53.1939891,
    "lon": 50.1918191,
    "tags": {
        "amenity": "cafe",
        "name": "Аптека"
    }
}
,
{
    "lat": 53.3469543,
    "lon": 50.2295014,
    "tags": {
        "amenity": "post_office",
        "contact:website": "https://www.pochta.ru",
        "name": "Самара 443026",
        "opening_hours": "Mo-Fr 08:00-20:00; Sa-Su 09:00-18:00"
    }
}
,
{
    "lat": 53.1131414,
    "lon": 50.0768501,
    "tags": {
        "amenity": "post_office",
        "contact:website": "https://www.pochta.ru",
        "name": "Самара 443004",
        "opening_hours": "Mo-Fr 08:00-20:00; Sa 09:00-18:00"
    }
}
,
{
    "lat": 53.196131,
    "lon": 50.1781536,
    "tags": {
        "amenity": "post_office",
        "contact:website": "https://www.pochta.ru",
        "name": "Самара 443069",
        "opening_hours": "Mo-Fr 08:00-20:00; Sa-Su 09:00-18:00",
        "phone": "+7 846 2606516"
    }
}
,
{
    "lat": 53.2116474,
    "lon": 50.1716462,
    "tags": {
        "amenity": "post_office",
        "contact:website": "https://www.pochta.ru",
        "name": "Самара 443086",
        "opening_hours": "Mo-Fr 08:00-20:00; Sa 09:00-18:00",
        "phone": "334-74-90"
    }
}
,
{
    "lat": 53.3050014,
    "lon": 50.2740467,
    "tags": {
        "amenity": "post_office",
        "contact:website": "https://www.pochta.ru",
        "name": "Мехзавод 443107",
        "opening_hours": "Mo-Fr 08:00-20:00; Sa 09:00-18:00",
        "phone": "957-19-67"
    }
}
,
{
    "lat": 53.2467962,
    "lon": 50.2479787,
    "tags": {
        "amenity": "post_office",
        "contact:website": "https://www.pochta.ru",
        "name": "Самара 443091",
        "opening_hours": "Mo-Fr 08:00-20:00; Sa-Su 09:00-19:00",
        "phone": "956-88-66"
    }
}
,
{
    "lat": 53.2165767,
    "lon": 50.2080787,
    "tags": {
        "amenity": "post_office",
        "contact:website": "https://www.pochta.ru",
        "name": "Самара 443090",
        "opening_hours": "Mo-Fr 08:00-20:00; Sa-Su 09:00-18:00",
        "phone": "224-28-02"
    }
}
,
{
    "lat": 53.2171115,
    "lon": 50.2393023,
    "tags": {
        "amenity": "post_office",
        "contact:website": "https://www.pochta.ru",
        "name": "Самара 443063",
        "opening_hours": "Mo,We 09:00-20:00; Tu,Th-Fr 09:00-18:00; Sa 09:00-16:00",
        "phone": "951-14-72"
    }
}
,
{
    "lat": 53.2090438,
    "lon": 50.2762258,
    "tags": {
        "amenity": "post_office",
        "contact:website": "https://www.pochta.ru",
        "name": "Самара 443052",
        "opening_hours": "Mo-Th 08:00-19:00; Fr 08:00-20:00; Sa-Su 09:00-18:00",
        "phone": "955-28-88"
    }
}
,
{
    "lat": 53.245292,
    "lon": 50.2064565,
    "tags": {
        "amenity": "post_office",
        "contact:website": "https://www.pochta.ru",
        "name": "Самара 443125",
        "opening_hours": "Mo-Fr 08:00-20:00; Sa-Su 09:00-18:00",
        "phone": "994-63-48"
    }
}
,
{
    "lat": 53.2197967,
    "lon": 50.2727298,
    "tags": {
        "amenity": "post_office",
        "contact:website": "https://www.pochta.ru",
        "name": "Самара 443092",
        "opening_hours": "Mo-Fr 08:00-20:00; Sa-Su 09:00-18:00",
        "phone": "996-88-92"
    }
}
,
{
    "lat": 53.1875914,
    "lon": 50.1879697,
    "tags": {
        "amenity": "post_office",
        "contact:website": "https://www.pochta.ru",
        "name": "Самара 443070",
        "opening_hours": "Mo-Fr 08:00-20:00; Sa-Su 09:00-18:00",
        "phone": "+7 846 2688608"
    }
}
,
{
    "lat": 53.2516949,
    "lon": 50.2483588,
    "tags": {
        "amenity": "post_office",
        "contact:website": "https://www.pochta.ru",
        "name": "Самара 443095",
        "opening_hours": "Mo-Fr 08:00-20:00; Sa-Su 09:00-18:00",
        "phone": "956-37-66"
    }
}
,
{
    "lat": 53.2389975,
    "lon": 50.2365157,
    "tags": {
        "amenity": "post_office",
        "contact:website": "https://www.pochta.ru",
        "name": "Самара 443087",
        "opening_hours": "Mo-Fr 08:00-20:00; Sa-Su 09:00-18:00",
        "phone": "956-42-06"
    }
}
,
{
    "lat": 53.2265394,
    "lon": 50.2984783,
    "tags": {
        "amenity": "post_office",
        "contact:website": "https://www.pochta.ru",
        "name": "Зубчаниновка 443109",
        "opening_hours": "Mo-Fr 09:00-18:00; Sa 09:00-16:00",
        "phone": "+7 846 9972253"
    }
}
,
{
    "lat": 53.1686501,
    "lon": 50.074886,
    "tags": {
        "amenity": "post_office",
        "contact:website": "https://www.pochta.ru",
        "name": "Самара 443015",
        "opening_hours": "Mo-Fr 09:00-13:00,14:00-18:00; Sa 09:00-13:00,14:00-16:00",
        "phone": "+7 846 3323197"
    }
}
,
{
    "lat": 53.120363,
    "lon": 50.0836673,
    "tags": {
        "amenity": "post_office",
        "contact:website": "https://www.pochta.ru",
        "name": "Самара 443065",
        "opening_hours": "Mo-Fr 08:00-20:00; Sa-Su 09:00-20:00",
        "phone": "+7 846 3301998"
    }
}
,
{
    "lat": 53.1882227,
    "lon": 50.1994227,
    "tags": {
        "amenity": "post_office",
        "contact:website": "https://www.pochta.ru",
        "name": "Самара 443076",
        "opening_hours": "Mo-Fr 08:00-20:00; Sa-Su 09:00-18:00",
        "phone": "261-33-74"
    }
}
,
{
    "lat": 53.2130716,
    "lon": 50.1910813,
    "tags": {
        "amenity": "vending_machine",
        "contact:website": "https://www.pochta.ru",
        "name": "Самара 443080",
        "opening_hours": "Mo-Fr 08:00-20:00; Sa 09:00-18:00",
        "phone": "+7 846 2241534"
    }
}
,
{
    "lat": 53.1982891,
    "lon": 50.2145092,
    "tags": {
        "amenity": "post_office",
        "contact:website": "https://www.pochta.ru",
        "name": "Самара 443023",
        "opening_hours": "Mo-Fr 08:00-20:00; Sa-Su 09:00-18:00",
        "phone": "263-01-07"
    }
}
,
{
    "lat": 53.1235063,
    "lon": 50.0917531,
    "tags": {
        "amenity": "post_office",
        "contact:website": "https://www.pochta.ru",
        "name": "Самара 443101",
        "opening_hours": "Mo-Fr 08:00-20:00; Sa 09:00-18:00",
        "phone": "+7 846 3300909"
    }
}
,
{
    "lat": 53.2153663,
    "lon": 50.2533261,
    "tags": {
        "amenity": "post_office",
        "contact:website": "https://www.pochta.ru",
        "name": "Самара 443008",
        "opening_hours": "Mo-Fr 08:00-20:00; Sa-Su 09:00-18:00",
        "phone": "995-08-18"
    }
}
,
{
    "lat": 53.2446043,
    "lon": 50.3108346,
    "tags": {
        "amenity": "post_office",
        "contact:website": "https://www.pochta.ru",
        "name": "Зубчаниновка 443044",
        "opening_hours": "Tu-Th 09:00-13:00,14:00-17:00; Fr 09:00-13:00,14:00-19:00; Sa 09:00-14:00",
        "phone": "997-21-53"
    }
}
,
{
    "lat": 53.2642611,
    "lon": 50.2212191,
    "tags": {
        "amenity": "post_office",
        "contact:website": "https://www.pochta.ru",
        "name": "Самара 443115",
        "opening_hours": "Mo-Fr 08:00-20:00; Sa-Su 09:00-18:00",
        "phone": "952-46-11"
    }
}
,
{
    "lat": 53.2319626,
    "lon": 50.2255251,
    "tags": {
        "amenity": "post_office",
        "contact:website": "https://www.pochta.ru",
        "name": "Самара 443016",
        "opening_hours": "Mo-Fr 08:00-20:00; Sa-Su 09:00-18:00",
        "phone": "951-14-90"
    }
}
,
{
    "lat": 53.2254353,
    "lon": 50.2688696,
    "tags": {
        "amenity": "post_office",
        "contact:website": "https://www.pochta.ru",
        "name": "Самара 443077",
        "opening_hours": "Mo-Fr 08:00-20:00; Sa-Su 09:00-18:00",
        "phone": "+7 846 9969442"
    }
}
,
{
    "lat": 53.2323155,
    "lon": 50.2153655,
    "tags": {
        "amenity": "post_office",
        "contact:website": "https://www.pochta.ru",
        "name": "Самара 443081",
        "opening_hours": "Mo-Fr 08:00-20:00; Sa-Su 09:00-18:00",
        "phone": "+7 846 9515000"
    }
}
,
{
    "lat": 53.2525396,
    "lon": 50.2052024,
    "tags": {
        "amenity": "post_office",
        "contact:website": "https://www.pochta.ru",
        "name": "Самара 443029",
        "opening_hours": "Mo-Fr 08:00-20:00; Sa-Su 09:00-19:00",
        "phone": "+7 846 2249843"
    }
}
,
{
    "lat": 53.2065981,
    "lon": 50.1656532,
    "tags": {
        "addr:street": "Московское шоссе",
        "amenity": "post_office",
        "contact:website": "https://www.pochta.ru",
        "name": "Самара 443056",
        "opening_hours": "Mo-Fr 08:00-20:00; Sa-Su 09:00-18:00"
    }
}
,
{
    "lat": 53.2027044,
    "lon": 50.108773,
    "tags": {
        "amenity": "post_office",
        "contact:website": "https://www.pochta.ru",
        "name": "Самара 443006",
        "opening_hours": "Mo-Fr 07:30-11:30,12:30-16:30",
        "phone": "+7 846 3323976"
    }
}
,
{
    "lat": 53.3430775,
    "lon": 50.2217934,
    "tags": {
        "amenity": "post_office",
        "contact:website": "https://www.pochta.ru",
        "name": "Самара 443112",
        "opening_hours": "Mo-Fr 08:00-20:00; Sa-Su 09:00-18:00"
    }
}
,
{
    "lat": 53.2042179,
    "lon": 50.1901261,
    "tags": {
        "amenity": "post_office",
        "contact:website": "https://www.pochta.ru",
        "name": "Самара 443045",
        "opening_hours": "Mo-Fr 08:00-20:00; Sa-Su 09:00-18:00",
        "phone": "+7 846 2625600"
    }
}
,
{
    "lat": 53.2386634,
    "lon": 50.2126201,
    "tags": {
        "amenity": "post_office",
        "contact:website": "https://www.pochta.ru",
        "name": "Самара 443111",
        "opening_hours": "Mo-Fr 08:00-20:00; Sa 09:00-18:00",
        "phone": "951-73-63"
    }
}
,
{
    "lat": 53.1724906,
    "lon": 50.1916185,
    "tags": {
        "amenity": "post_office",
        "contact:website": "https://www.pochta.ru",
        "name": "Самара 443017",
        "opening_hours": "Mo-Fr 09:00-13:00,14:00-16:00; Sa 09:00-14:00",
        "phone": "268-56-69"
    }
}
,
{
    "lat": 53.1998177,
    "lon": 50.173374,
    "tags": {
        "amenity": "post_office",
        "contact:website": "https://www.pochta.ru",
        "name": "Самара 443079",
        "opening_hours": "Mo-Fr 08:00-20:00; Sa-Su 09:00-18:00",
        "phone": "260-45-77"
    }
}
,
{
    "lat": 53.1865479,
    "lon": 50.1238936,
    "tags": {
        "amenity": "post_office",
        "contact:website": "https://www.pochta.ru",
        "name": "Самара 443030",
        "opening_hours": "Mo-Fr 08:00-20:00; Sa 09:00-18:00; Su 09:00-14:00",
        "phone": "333-26-06"
    }
}
,
{
    "lat": 53.2301877,
    "lon": 50.2688232,
    "tags": {
        "amenity": "post_office",
        "contact:website": "https://www.pochta.ru",
        "name": "Самара 443034",
        "opening_hours": "Mo-Fr 08:00-20:00; Sa-Su 09:00-18:00",
        "phone": "954-51-63"
    }
}
,
{
    "lat": 53.2468345,
    "lon": 50.2582508,
    "tags": {
        "amenity": "post_office",
        "contact:website": "https://www.pochta.ru",
        "name": "Самара 443098",
        "opening_hours": "Mo-Fr 08:00-20:00; Sa-Su 09:00-18:00",
        "phone": "+7 846 9584311"
    }
}
,
{
    "lat": 53.2489124,
    "lon": 50.2562726,
    "tags": {
        "amenity": "post_office",
        "contact:website": "https://www.pochta.ru",
        "name": "Самара 443106",
        "opening_hours": "Mo-Fr 08:00-20:00; Sa-Su 09:00-18:00",
        "phone": "958-65-77"
    }
}
,
{
    "lat": 53.2803089,
    "lon": 50.2736145,
    "tags": {
        "amenity": "post_office",
        "contact:website": "https://www.pochta.ru",
        "name": "Самара 443072",
        "opening_hours": "Tu-Fr 09:00-13:00,14:00-18:00; Sa 09:00-13:00,14:00-16:00",
        "phone": "+7 846 9594644"
    }
}
,
{
    "lat": 53.3878992,
    "lon": 50.1688021,
    "tags": {
        "amenity": "post_office",
        "contact:website": "https://www.pochta.ru",
        "name": "Красная Глинка 443048",
        "opening_hours": "Mo-Fr 09:00-18:00; Sa-Su 09:00-16:00"
    }
}
,
{
    "lat": 53.1999763,
    "lon": 50.1331935,
    "tags": {
        "amenity": "post_office",
        "contact:website": "https://www.pochta.ru",
        "name": "Самара 443096",
        "opening_hours": "Mo-Fr 08:00-20:00; Sa-Su 09:00-18:00",
        "phone": "336-46-31"
    }
}
,
{
    "lat": 53.2008691,
    "lon": 50.2064576,
    "tags": {
        "amenity": "post_office",
        "contact:website": "https://www.pochta.ru",
        "name": "Самара 443067",
        "opening_hours": "Mo-Fr 08:00-20:00; Sa-Su 09:00-18:00",
        "phone": "262-99-24"
    }
}
,
{
    "lat": 53.2613377,
    "lon": 50.2278945,
    "tags": {
        "amenity": "post_office",
        "contact:website": "https://www.pochta.ru",
        "name": "Самара 443122",
        "opening_hours": "Mo-Fr 09:00-13:00,14:00-18:00; Sa 09:00-13:00,14:00-16:00"
    }
}
,
{
    "lat": 53.2036051,
    "lon": 50.2290027,
    "tags": {
        "amenity": "post_office",
        "contact:website": "https://www.pochta.ru",
        "name": "Самара 443083",
        "opening_hours": "Mo-Fr 08:00-20:00; Sa-Su 09:00-18:00",
        "phone": "+7 846 9519909"
    }
}
,
{
    "lat": 53.2630893,
    "lon": 50.214189,
    "tags": {
        "amenity": "post_office",
        "contact:website": "https://www.pochta.ru",
        "name": "Самара 443031",
        "opening_hours": "Mo-Fr 09:00-13:00,14:00-18:00; Sa 09:00-13:00,14:00-16:00",
        "phone": "+7 846 9526352"
    }
}
,
{
    "lat": 53.2355602,
    "lon": 50.2509455,
    "tags": {
        "amenity": "post_office",
        "contact:website": "https://www.pochta.ru",
        "name": "Самара 443035",
        "opening_hours": "Mo-Fr 08:00-20:00; Sa-Su 09:00-18:00",
        "phone": "992-91-77"
    }
}
,
{
    "lat": 53.2346724,
    "lon": 50.189331,
    "tags": {
        "amenity": "post_office",
        "contact:website": "https://www.pochta.ru",
        "name": "Самара 443011",
        "opening_hours": "Mo-Fr 08:00-20:00; Sa-Su 09:00-18:00",
        "phone": "926-04-83"
    }
}
,
{
    "lat": 53.196035,
    "lon": 50.1983985,
    "tags": {
        "amenity": "post_office",
        "contact:website": "https://www.pochta.ru",
        "name": "Самара 443074",
        "opening_hours": "Mo-Fr 08:00-20:00; Sa-Su 09:00-18:00",
        "phone": "268-60-84"
    }
}
,
{
    "lat": 53.1958678,
    "lon": 50.1718592,
    "tags": {
        "amenity": "post_office",
        "contact:website": "https://www.pochta.ru",
        "name": "Самара 443093",
        "opening_hours": "Mo-Fr 09:00-13:00,14:00-18:00; Sa 09:00-13:00,14:00-16:00",
        "phone": "260-59-41"
    }
}
,
{
    "lat": 53.2121618,
    "lon": 50.1521409,
    "tags": {
        "amenity": "post_office",
        "contact:website": "https://www.pochta.ru",
        "name": "Самара 443068",
        "opening_hours": "Mo-Fr 09:00-13:00,14:00-18:00; Sa 09:00-13:00,14:00-16:00",
        "phone": "+7 846 3341400"
    }
}
,
{
    "lat": 53.2376406,
    "lon": 50.223466,
    "tags": {
        "amenity": "post_office",
        "contact:website": "https://www.pochta.ru",
        "name": "Самара 443084",
        "opening_hours": "Mo-Fr 08:00-20:00; Sa-Su 09:00-18:00",
        "phone": "953-09-94"
    }
}
,
{
    "lat": 53.1018119,
    "lon": 50.0349136,
    "tags": {
        "amenity": "post_office",
        "contact:website": "https://www.pochta.ru",
        "name": "Самара 443033",
        "opening_hours": "Tu-Fr 09:00-13:00,14:00-16:00; Sa 09:00-14:00"
    }
}
,
{
    "lat": 53.2064682,
    "lon": 50.1208305,
    "tags": {
        "amenity": "post_office",
        "contact:website": "https://www.pochta.ru",
        "name": "Самара 443100",
        "opening_hours": "Mo-Fr 08:00-20:00; Sa 09:00-18:00",
        "phone": "+7 846 3372626"
    }
}
,
{
    "lat": 53.2029909,
    "lon": 50.1466754,
    "tags": {
        "addr:street": "Московское шоссе",
        "amenity": "post_office",
        "contact:website": "https://www.pochta.ru",
        "name": "Самара 443013",
        "opening_hours": "Mo-Fr 08:00-20:00; Sa 09:00-18:00",
        "phone": "336-05-33"
    }
}
,
{
    "lat": 53.209458,
    "lon": 50.2290397,
    "tags": {
        "amenity": "post_office",
        "contact:website": "https://www.pochta.ru",
        "name": "Самара 443058",
        "opening_hours": "Mo-Fr 08:00-20:00; Sa-Su 09:00-18:00",
        "phone": "+7 846 2241034"
    }
}
,
{
    "lat": 53.229517,
    "lon": 50.2550313,
    "tags": {
        "amenity": "post_office",
        "contact:website": "https://www.pochta.ru",
        "name": "Самара 443105",
        "opening_hours": "Mo-Fr 08:00-20:00; Sa-Su 09:00-18:00",
        "phone": "931-76-94"
    }
}
,
{
    "lat": 53.2339509,
    "lon": 50.2762008,
    "tags": {
        "amenity": "post_office",
        "contact:website": "https://www.pochta.ru",
        "name": "Самара 443051",
        "opening_hours": "Mo-Fr 08:00-20:00; Sa-Su 09:00-18:00",
        "phone": "958-34-45"
    }
}
,
{
    "lat": 53.1938392,
    "lon": 50.1465396,
    "tags": {
        "amenity": "pharmacy"
    }
}
,
{
    "lat": 53.1917839,
    "lon": 50.1430257,
    "tags": {
        "amenity": "pharmacy",
        "name": "Аптека Близнецы"
    }
}
,
{
    "lat": 53.1930289,
    "lon": 50.1381973,
    "tags": {
        "amenity": "pharmacy",
        "name": "Вита"
    }
}
,
{
    "lat": 53.1901029,
    "lon": 50.1496193,
    "tags": {
        "amenity": "parking"
    }
}
,
{
    "lat": 53.189023,
    "lon": 50.1509819,
    "tags": {
        "amenity": "parking"
    }
}
,
{
    "lat": 53.1913434,
    "lon": 50.0957624,
    "tags": {
        "amenity": "bank",
        "name": "Сбербанк: дополнительный офис №9054/0371",
        "phone": "+7 846 2278292",
        "website": "http://sbrf.ru/"
    }
}
,
{
    "lat": 53.2178916,
    "lon": 50.2589541,
    "tags": {
        "amenity": "bank",
        "name": "Сбербанк: дополнительный офис №6991/0299",
        "phone": "995-25-06",
        "website": "http://sbrf.ru/"
    }
}
,
{
    "lat": 53.2323846,
    "lon": 50.2155177,
    "tags": {
        "amenity": "bank",
        "name": "Сбербанк: дополнительный офис №6991/0368",
        "phone": "+7 846 9514854",
        "website": "http://sbrf.ru/"
    }
}
,
{
    "lat": 53.2477986,
    "lon": 50.3352525,
    "tags": {
        "amenity": "bank",
        "name": "Сбербанк: дополнительный офис №6991/091",
        "phone": "+7 846 9313650",
        "website": "https://www.sberbank.ru/"
    }
}
,
{
    "lat": 53.1875468,
    "lon": 50.188083,
    "tags": {
        "amenity": "bank",
        "name": "Сбербанк: дополнительный офис №6991/0217",
        "phone": "+7 846 2688607",
        "website": "http://sbrf.ru/"
    }
}
,
{
    "lat": 53.1444265,
    "lon": 50.0335918,
    "tags": {
        "amenity": "bank",
        "name": "Сбербанк: дополнительный офис №6991/0349",
        "phone": "+7 846 3091753",
        "website": "https://www.sberbank.ru/"
    }
}
,
{
    "lat": 53.2383587,
    "lon": 50.2117263,
    "tags": {
        "amenity": "bank",
        "name": "Сбербанк: дополнительный офис №6991/0270",
        "phone": "951-69-66",
        "website": "http://sbrf.ru/"
    }
}
,
{
    "lat": 53.2418637,
    "lon": 50.1979907,
    "tags": {
        "amenity": "bank",
        "name": "Сбербанк: дополнительный офис №9054/0365",
        "phone": "+7 846 9986034",
        "website": "https://www.sberbank.ru/"
    }
}
,
{
    "lat": 53.1956076,
    "lon": 50.0965552,
    "tags": {
        "amenity": "bank",
        "name": "Сбербанк: дополнительный офис №6991/0308",
        "phone": "+7 846 3333309",
        "website": "http://sbrf.ru/"
    }
}
,
{
    "lat": 53.1967666,
    "lon": 50.1555598,
    "tags": {
        "amenity": "bank",
        "name": "Сбербанк: дополнительный офис №6991/0220",
        "phone": "247-72-97",
        "website": "http://sbrf.ru/"
    }
}
,
{
    "lat": 53.2006698,
    "lon": 50.206074,
    "tags": {
        "amenity": "bank",
        "name": "Сбербанк: дополнительный офис №6991/0207",
        "phone": "262-72-90",
        "website": "http://sbrf.ru/"
    }
}
,
{
    "lat": 53.2488149,
    "lon": 50.2560633,
    "tags": {
        "amenity": "bank",
        "name": "Сбербанк: дополнительный офис №6991/0370",
        "phone": "958-11-09",
        "website": "https://www.sberbank.ru/"
    }
}
,
{
    "lat": 53.1867091,
    "lon": 50.1217018,
    "tags": {
        "amenity": "bank",
        "name": "Сбербанк: дополнительный офис №6991/0203",
        "phone": "266-43-43",
        "website": "http://sbrf.ru/"
    }
}
,
{
    "lat": 53.2408701,
    "lon": 50.1972917,
    "tags": {
        "amenity": "bank",
        "name": "Сбербанк",
        "phone": "224-94-61",
        "website": "https://www.sberbank.ru/"
    }
}
,
{
    "lat": 53.2058475,
    "lon": 50.2369082,
    "tags": {
        "amenity": "bank",
        "name": "Сбербанк: дополнительный офис №6991/0297",
        "phone": "+7 846 2426054",
        "website": "http://sbrf.ru/"
    }
}
,
{
    "lat": 53.2015306,
    "lon": 50.2289171,
    "tags": {
        "amenity": "bank",
        "name": "Сбербанк: дополнительный офис №6991/0356",
        "phone": "262-40-20",
        "website": "http://sbrf.ru/"
    }
}
,
{
    "lat": 53.205884,
    "lon": 50.1621221,
    "tags": {
        "addr:street": "проспект Масленникова",
        "amenity": "pharmacy",
        "name": "Апрель",
        "opening_hours": "Mo-Su 08:00-20:00"
    }
}
,
{
    "lat": 53.1150102,
    "lon": 50.0773851,
    "tags": {
        "amenity": "bank",
        "name": "Сбербанк: дополнительный офис №6991/0350",
        "phone": "+7 846 3303979",
        "website": "https://www.sberbank.ru/"
    }
}
,
{
    "lat": 53.2525808,
    "lon": 50.2287819,
    "tags": {
        "amenity": "bank",
        "name": "Сбербанк: дополнительный офис №6991/0362",
        "phone": "928-00-24",
        "website": "https://www.sberbank.ru/"
    }
}
,
{
    "lat": 53.2237448,
    "lon": 50.2716525,
    "tags": {
        "amenity": "bank",
        "name": "Сбербанк: дополнительный офис №6991/022",
        "phone": "996-85-09",
        "website": "http://sbrf.ru/"
    }
}
,
{
    "lat": 53.2043206,
    "lon": 50.1455525,
    "tags": {
        "amenity": "bank",
        "name": "Сбербанк: дополнительный офис №6991/0355",
        "phone": "+7 846 3414600",
        "website": "http://sbrf.ru/"
    }
}
,
{
    "lat": 53.210442,
    "lon": 50.2366389,
    "tags": {
        "amenity": "bank",
        "name": "Сбербанк: дополнительный офис №6991/0278",
        "phone": "+7 846 9957822",
        "website": "http://sbrf.ru/"
    }
}
,
{
    "lat": 53.2457571,
    "lon": 50.2545731,
    "tags": {
        "amenity": "bank",
        "name": "Сбербанк: дополнительный офис №6991/0257",
        "phone": "+7 846 9583822",
        "website": "https://www.sberbank.ru/"
    }
}
,
{
    "lat": 53.2169878,
    "lon": 50.2390278,
    "tags": {
        "amenity": "bank",
        "name": "Сбербанк: дополнительный офис №6991/0287",
        "phone": "+7 846 9957644",
        "website": "http://sbrf.ru/"
    }
}
,
{
    "lat": 53.3025145,
    "lon": 50.2922195,
    "tags": {
        "amenity": "bank",
        "name": "Сбербанк: дополнительный офис №6991/0344",
        "phone": "957-33-75",
        "website": "https://www.sberbank.ru/"
    }
}
,
{
    "lat": 53.2034286,
    "lon": 50.1234182,
    "tags": {
        "amenity": "bank",
        "name": "Сбербанк: дополнительный офис №6991/0363",
        "phone": "+7 846 3739060",
        "website": "http://sbrf.ru/"
    }
}
,
{
    "lat": 53.1368977,
    "lon": 50.124786,
    "tags": {
        "amenity": "bank",
        "name": "Сбербанк: дополнительный офис №6991/0348",
        "phone": "+7 846 3301851",
        "website": "https://www.sberbank.ru/"
    }
}
,
{
    "lat": 53.196337,
    "lon": 50.1992217,
    "tags": {
        "amenity": "bank",
        "name": "Сбербанк: дополнительный офис №6991/0226",
        "phone": "+7 846 2622219",
        "website": "http://sbrf.ru/"
    }
}
,
{
    "lat": 53.2166078,
    "lon": 50.1503196,
    "tags": {
        "amenity": "bank",
        "name": "Сбербанк: дополнительный офис №6991/0353",
        "phone": "334-82-02",
        "website": "http://sbrf.ru/"
    }
}
,
{
    "lat": 53.2127309,
    "lon": 50.2105544,
    "tags": {
        "amenity": "bank",
        "name": "Сбербанк: дополнительный офис №6991/0208",
        "phone": "229-95-85",
        "website": "http://sbrf.ru/"
    }
}
,
{
    "lat": 53.2322367,
    "lon": 50.2151917,
    "tags": {
        "amenity": "bank",
        "name": "Сбербанк: дополнительный офис №6991/0243",
        "phone": "+7 846 9515154",
        "website": "http://sbrf.ru/"
    }
}
,
{
    "lat": 53.346158,
    "lon": 50.2084747,
    "tags": {
        "amenity": "bank",
        "name": "Сбербанк: дополнительный офис №6991/0338",
        "phone": "950-02-60",
        "website": "https://www.sberbank.ru/"
    }
}
,
{
    "lat": 53.2524825,
    "lon": 50.2286233,
    "tags": {
        "amenity": "bank",
        "name": "Сбербанк: дополнительный офис №6991/0361",
        "phone": "928-00-21",
        "website": "https://www.sberbank.ru/"
    }
}
,
{
    "lat": 53.2165174,
    "lon": 50.1893113,
    "tags": {
        "amenity": "bank",
        "name": "Сбербанк: дополнительный офис №6991/0239",
        "phone": "928-36-16",
        "website": "http://sbrf.ru/"
    }
}
,
{
    "lat": 53.23348,
    "lon": 50.1991836,
    "tags": {
        "amenity": "bank",
        "contact:website": "https://www.sberbank.ru",
        "name": "Сбербанк",
        "phone": "279-51-84"
    }
}
,
{
    "lat": 53.2276479,
    "lon": 50.2927822,
    "tags": {
        "amenity": "bank",
        "name": "Сбербанк: дополнительный офис №6991/0272",
        "phone": "931-27-37",
        "website": "http://sbrf.ru/"
    }
}
,
{
    "lat": 53.2271666,
    "lon": 50.2625856,
    "tags": {
        "amenity": "bank",
        "name": "Сбербанк: дополнительный офис №6991/0164",
        "phone": "+7 846 9930854",
        "website": "http://sbrf.ru/"
    }
}
,
{
    "lat": 53.2203617,
    "lon": 50.2280851,
    "tags": {
        "amenity": "bank",
        "name": "Сбербанк: дополнительный офис №6991/0244",
        "phone": "+7 846 9510388",
        "website": "http://sbrf.ru/"
    }
}
,
{
    "lat": 53.1875996,
    "lon": 50.089335,
    "tags": {
        "amenity": "cafe",
        "name": "Traveler's Coffee",
        "website": "www.travelerscoffee.ru"
    }
}
,
{
    "lat": 53.2274009,
    "lon": 50.2484563,
    "tags": {
        "amenity": "bank",
        "name": "Сбербанк: дополнительный офис №6991/0279",
        "phone": "951-86-22",
        "website": "http://sbrf.ru/"
    }
}
,
{
    "lat": 53.2770202,
    "lon": 50.2719854,
    "tags": {
        "amenity": "bank",
        "name": "Сбербанк: дополнительный офис №6991/0358",
        "phone": "925-81-05",
        "website": "https://www.sberbank.ru/"
    }
}
,
{
    "lat": 53.1252005,
    "lon": 50.0900671,
    "tags": {
        "amenity": "bank",
        "name": "Сбербанк: дополнительный офис №6991/0351",
        "opening_hours": "Mo-Fr 09:00-19:00",
        "phone": "+7 846 3306582",
        "website": "https://www.sberbank.ru/"
    }
}
,
{
    "lat": 53.1740086,
    "lon": 50.1908998,
    "tags": {
        "amenity": "bank",
        "name": "Сбербанк: дополнительный офис №6991/0352",
        "phone": "261-69-71",
        "website": "http://sbrf.ru/"
    }
}
,
{
    "lat": 53.2531836,
    "lon": 50.2204923,
    "tags": {
        "amenity": "bank",
        "name": "Сбербанк: дополнительный офис №6991/0269",
        "phone": "240-63-01",
        "website": "https://www.sberbank.ru/"
    }
}
,
{
    "lat": 53.2318115,
    "lon": 50.2114943,
    "tags": {
        "amenity": "clinic",
        "name": "Детская поликлиника №6",
        "phone": "+7-846-9518954"
    }
}
,
{
    "lat": 53.2129502,
    "lon": 50.2184407,
    "tags": {
        "amenity": "cafe"
    }
}
,
{
    "lat": 53.2069044,
    "lon": 50.2218536,
    "tags": {
        "amenity": "pharmacy",
        "opening_hours": "mo-sa 08:00-20:00; Su 09:00-20:00"
    }
}
,
{
    "lat": 53.2117458,
    "lon": 50.2119517,
    "tags": {
        "amenity": "pharmacy",
        "contact:website": "https://vitaexpress.ru/",
        "name": "Вита Экспресс",
        "opening_hours": "Mo-Sa 08:00-22:00;Su 09:00-21:00"
    }
}
,
{
    "lat": 53.1929117,
    "lon": 50.1391759,
    "tags": {
        "amenity": "fuel",
        "name": "Нефко"
    }
}
,
{
    "lat": 53.190327,
    "lon": 50.1499429,
    "tags": {
        "amenity": "parking"
    }
}
,
{
    "lat": 53.1908343,
    "lon": 50.1463759,
    "tags": {
        "amenity": "parking"
    }
}
,
{
    "lat": 53.191029,
    "lon": 50.123895,
    "tags": {
        "amenity": "library",
        "name": "Областная библиотека для слепых",
        "phone": "(846) 332-24-48",
        "website": "http://samaraobs.ru"
    }
}
,
{
    "lat": 53.2102498,
    "lon": 50.1391461,
    "tags": {
        "amenity": "library",
        "name": "Областная юношеская библиотека",
        "phone": "+7 846 3340840",
        "website": "http://soub.ru"
    }
}
,
{
    "lat": 53.2252236,
    "lon": 50.2141895,
    "tags": {
        "amenity": "library",
        "name": "Детская библиотека"
    }
}
,
{
    "lat": 53.2335415,
    "lon": 50.2009589,
    "tags": {
        "amenity": "cinema",
        "name": "Синема Парк"
    }
}
,
{
    "lat": 53.2330724,
    "lon": 50.200847,
    "tags": {
        "amenity": "fast_food"
    }
}
,
{
    "lat": 53.2339622,
    "lon": 50.1850091,
    "tags": {
        "amenity": "fountain"
    }
}
,
{
    "lat": 53.2306302,
    "lon": 50.2093519,
    "tags": {
        "amenity": "fountain"
    }
}
,
{
    "lat": 53.2461803,
    "lon": 50.2131685,
    "tags": {
        "amenity": "bank",
        "name": "ДО ОАО КБ \"Солидарность\""
    }
}
,
{
    "lat": 53.201373,
    "lon": 50.0995403,
    "tags": {
        "amenity": "pub",
        "name": "Жигулевское пиво"
    }
}
,
{
    "lat": 53.1979686,
    "lon": 50.1011143,
    "tags": {
        "amenity": "bank",
        "contact:website": "https://www.sberbank.ru",
        "name": "Сбербанк"
    }
}
,
{
    "lat": 53.1867018,
    "lon": 50.2054033,
    "tags": {
        "amenity": "car_wash",
        "name": "Avtomoiki63"
    }
}
,
{
    "lat": 53.1854611,
    "lon": 50.2034399,
    "tags": {
        "amenity": "car_wash"
    }
}
,
{
    "lat": 53.183055,
    "lon": 50.2090184,
    "tags": {
        "amenity": "parking"
    }
}
,
{
    "lat": 53.2123844,
    "lon": 50.1723327,
    "tags": {
        "amenity": "bank",
        "name": "Сбербанк: дополнительный офис №6991/0335",
        "website": "http://sbrf.ru/"
    }
}
,
{
    "lat": 53.1918289,
    "lon": 50.1176985,
    "tags": {
        "amenity": "post_office",
        "contact:website": "https://www.pochta.ru",
        "name": "Самара 443041",
        "opening_hours": "Mo-Fr 08:00-20:00; Sa 09:00-18:00"
    }
}
,
{
    "lat": 53.1863074,
    "lon": 50.0870911,
    "tags": {
        "amenity": "toilets"
    }
}
,
{
    "lat": 53.1799743,
    "lon": 50.0962486,
    "tags": {
        "amenity": "toilets"
    }
}
,
{
    "lat": 53.0972626,
    "lon": 50.0788786,
    "tags": {
        "amenity": "car_wash",
        "name": "Газавтосервис, авто мойка"
    }
}
,
{
    "lat": 53.2079459,
    "lon": 50.1655026,
    "tags": {
        "amenity": "waste_disposal"
    }
}
,
{
    "lat": 53.2063997,
    "lon": 50.1651408,
    "tags": {
        "addr:street": "Московское шоссе",
        "amenity": "doctors",
        "contact:website": "https://www.invitro.ru/",
        "name": "Инвитро",
        "opening_hours": "Mo-Fr 07:00-19:00;Sa-Su 08:00-15:00"
    }
}
,
{
    "lat": 53.2074892,
    "lon": 50.1839244,
    "tags": {
        "amenity": "waste_basket"
    }
}
,
{
    "lat": 53.2100313,
    "lon": 50.1732219,
    "tags": {
        "addr:street": "Московское шоссе",
        "amenity": "pharmacy",
        "name": "Фармленд",
        "opening_hours": "24/7",
        "phone": "+7 800 550-03-93",
        "website": "https://farmlend.ru/"
    }
}
,
{
    "lat": 53.2044008,
    "lon": 50.1328972,
    "tags": {
        "amenity": "waste_basket"
    }
}
,
{
    "lat": 53.2124387,
    "lon": 50.2530439,
    "tags": {
        "amenity": "pharmacy",
        "contact:website": "https://vitaexpress.ru/",
        "name": "Вита",
        "opening_hours": "Mo-Sa 08:00-20:00;Su 09:00-20:00"
    }
}
,
{
    "lat": 53.2133767,
    "lon": 50.2503351,
    "tags": {
        "amenity": "pharmacy",
        "opening_hours": "24/7"
    }
}
,
{
    "lat": 53.2134988,
    "lon": 50.2482052,
    "tags": {
        "amenity": "pharmacy",
        "contact:website": "https://vitaexpress.ru/",
        "name": "Вита Центральная",
        "opening_hours": "24/7"
    }
}
,
{
    "lat": 53.2636168,
    "lon": 50.2285242,
    "tags": {
        "amenity": "telephone"
    }
}
,
{
    "lat": 53.2263304,
    "lon": 50.2808982,
    "tags": {
        "amenity": "fuel",
        "name": "Олви"
    }
}
,
{
    "lat": 53.2276069,
    "lon": 50.1728777,
    "tags": {
        "amenity": "parking"
    }
}
,
{
    "lat": 53.3882827,
    "lon": 50.1690973,
    "tags": {
        "amenity": "pharmacy"
    }
}
,
{
    "lat": 53.4842064,
    "lon": 49.848939,
    "tags": {
        "amenity": "place_of_worship",
        "name": "Деревянное чудо"
    }
}
,
{
    "lat": 53.3329191,
    "lon": 50.2540655,
    "tags": {
        "amenity": "bar",
        "name": "Каспий"
    }
}
,
{
    "lat": 53.3485487,
    "lon": 50.2338073,
    "tags": {
        "amenity": "cafe",
        "name": "Лёня"
    }
}
,
{
    "lat": 53.34344,
    "lon": 50.2342326,
    "tags": {
        "addr:street": "Волжское шоссе",
        "amenity": "fuel",
        "name": "Олви",
        "opening_hours": "24/7",
        "phone": "+7 (987) 986-52-92",
        "website": "http://olvi-azs.ru"
    }
}
,
{
    "lat": 53.347596,
    "lon": 50.2327129,
    "tags": {
        "amenity": "fuel"
    }
}
,
{
    "lat": 53.2463043,
    "lon": 50.1905849,
    "tags": {
        "amenity": "pharmacy"
    }
}
,
{
    "lat": 53.2462175,
    "lon": 50.1908478,
    "tags": {
        "amenity": "payment_terminal",
        "contact:website": "https://qiwi.com",
        "name": "банкомат QIWI"
    }
}
,
{
    "lat": 53.2468177,
    "lon": 50.189217,
    "tags": {
        "amenity": "pub"
    }
}
,
{
    "lat": 53.2435042,
    "lon": 50.1900843,
    "tags": {
        "addr:street": "6-я просека",
        "amenity": "restaurant",
        "contact:website": "https://fujisamara.ru/",
        "name": "Friends",
        "opening_hours": "Mo-Th,Su 10:00-24:00; Fr-Sa 10:00-02:00"
    }
}
,
{
    "lat": 53.1863179,
    "lon": 50.0878539,
    "tags": {
        "amenity": "pharmacy",
        "name": "Имплозия"
    }
}
,
{
    "lat": 53.1863685,
    "lon": 50.0870428,
    "tags": {
        "amenity": "police"
    }
}
,
{
    "lat": 53.1861528,
    "lon": 50.0867791,
    "tags": {
        "amenity": "courthouse",
        "name": "Самарский районый суд"
    }
}
,
{
    "lat": 53.2693981,
    "lon": 50.2559958,
    "tags": {
        "amenity": "cafe",
        "name": "Старый замок"
    }
}
,
{
    "lat": 53.2724222,
    "lon": 50.259145,
    "tags": {
        "amenity": "cafe",
        "name": "Золотое Руно"
    }
}
,
{
    "lat": 53.2647235,
    "lon": 50.2858384,
    "tags": {
        "addr:street": "Ракитовское шоссе",
        "amenity": "fuel",
        "name": "Олви",
        "opening_hours": "24/7",
        "phone": "+7 (927) 692-70-87",
        "shop": "yes",
        "website": "https://olvi-azs.ru/"
    }
}
,
{
    "lat": 53.2608267,
    "lon": 50.2897142,
    "tags": {
        "addr:street": "Ракитовское шоссе",
        "amenity": "fuel",
        "name": "Эко",
        "opening_hours": "24/7"
    }
}
,
{
    "lat": 53.2302481,
    "lon": 50.2483739,
    "tags": {
        "amenity": "bank",
        "name": "Алтайэнергобанк"
    }
}
,
{
    "lat": 53.1871969,
    "lon": 50.139482,
    "tags": {
        "amenity": "police",
        "name": "Опорный пунк полиции №2, 3 - Железнодорожного района"
    }
}
,
{
    "lat": 53.3045181,
    "lon": 50.2745086,
    "tags": {
        "amenity": "library"
    }
}
,
{
    "lat": 53.2992927,
    "lon": 50.2810532,
    "tags": {
        "amenity": "pharmacy",
        "name": "Вита",
        "opening_hours": "24/7",
        "phone": "+7-846-957-05-80"
    }
}
,
{
    "lat": 53.3023383,
    "lon": 50.2835771,
    "tags": {
        "amenity": "pharmacy"
    }
}
,
{
    "lat": 53.3031654,
    "lon": 50.2843577,
    "tags": {
        "amenity": "library"
    }
}
,
{
    "lat": 53.3021139,
    "lon": 50.2764398,
    "tags": {
        "amenity": "pharmacy",
        "contact:website": "https://vitaexpress.ru/",
        "name": "Вита Экспресс",
        "opening_hours": "Mo-Fr 08:00-21:00;Sa-Su 09:00-20:00",
        "website": "https://vitaexpress.ru"
    }
}
,
{
    "lat": 53.2987157,
    "lon": 50.2853555,
    "tags": {
        "amenity": "atm"
    }
}
,
{
    "lat": 53.3001215,
    "lon": 50.2802646,
    "tags": {
        "amenity": "atm"
    }
}
,
{
    "lat": 53.3016779,
    "lon": 50.2808172,
    "tags": {
        "amenity": "parking"
    }
}
,
{
    "lat": 53.2989393,
    "lon": 50.2776291,
    "tags": {
        "amenity": "pub"
    }
}
,
{
    "lat": 53.3004086,
    "lon": 50.2895756,
    "tags": {
        "amenity": "school",
        "name": "Музыкальная школа №6"
    }
}
,
{
    "lat": 53.232795,
    "lon": 50.2126339,
    "tags": {
        "amenity": "waste_basket"
    }
}
,
{
    "lat": 53.2338603,
    "lon": 50.2108132,
    "tags": {
        "amenity": "waste_basket"
    }
}
,
{
    "lat": 53.2342166,
    "lon": 50.2117572,
    "tags": {
        "amenity": "waste_basket"
    }
}
,
{
    "lat": 53.2314456,
    "lon": 50.2039257,
    "tags": {
        "amenity": "fountain"
    }
}
,
{
    "lat": 53.2030604,
    "lon": 50.1217443,
    "tags": {
        "amenity": "cafe",
        "name": "XL"
    }
}
,
{
    "lat": 53.2144744,
    "lon": 50.1662321,
    "tags": {
        "amenity": "pharmacy",
        "name": "БиоМед"
    }
}
,
{
    "lat": 53.1925398,
    "lon": 50.1132969,
    "tags": {
        "addr:street": "улица Братьев Коростелёвых",
        "amenity": "pharmacy",
        "name": "Панацея"
    }
}
,
{
    "lat": 53.1906547,
    "lon": 50.1135407,
    "tags": {
        "amenity": "pharmacy",
        "name": "Аптека 36,6",
        "website": "https://366.ru/"
    }
}
,
{
    "lat": 53.1915852,
    "lon": 50.1131923,
    "tags": {
        "amenity": "waste_basket"
    }
}
,
{
    "lat": 53.191897,
    "lon": 50.1125244,
    "tags": {
        "amenity": "drinking_water"
    }
}
,
{
    "lat": 53.188084,
    "lon": 50.1219354,
    "tags": {
        "amenity": "pharmacy",
        "name": "Implozia",
        "opening_hours": "Mo-Su 09:00-20:00"
    }
}
,
{
    "lat": 53.1904611,
    "lon": 50.1202187,
    "tags": {
        "amenity": "bank",
        "name": "БКС Премьер"
    }
}
,
{
    "lat": 53.1935999,
    "lon": 50.1220796,
    "tags": {
        "amenity": "pharmacy",
        "name": "Вита"
    }
}
,
{
    "lat": 53.1905562,
    "lon": 50.120268,
    "tags": {
        "amenity": "bank",
        "contact:website": "https://www.vtb.ru",
        "name": "ВТБ"
    }
}
,
{
    "lat": 53.1934109,
    "lon": 50.1794323,
    "tags": {
        "amenity": "bank",
        "name": "ИТБ"
    }
}
,
{
    "lat": 53.1908053,
    "lon": 50.1204324,
    "tags": {
        "amenity": "bank",
        "name": "Спутник"
    }
}
,
{
    "lat": 53.1909868,
    "lon": 50.1811914,
    "tags": {
        "amenity": "dentist",
        "opening_hours": "Mo-Fr 09:00-20:00, Sa 09:00-14:00"
    }
}
,
{
    "lat": 53.1960221,
    "lon": 50.1261916,
    "tags": {
        "amenity": "car_wash;car_repair"
    }
}
,
{
    "lat": 53.2211973,
    "lon": 50.1965472,
    "tags": {
        "amenity": "waste_basket"
    }
}
,
{
    "lat": 53.2065904,
    "lon": 50.1137143,
    "tags": {
        "amenity": "post_office",
        "contact:website": "https://www.pochta.ru",
        "name": "Самара 443071",
        "opening_hours": "Mo-Fr 09:00-13:00,14:00-18:00; Sa 09:00-15:00",
        "phone": "+7 846 2424548"
    }
}
,
{
    "lat": 53.206159,
    "lon": 50.1936698,
    "tags": {
        "amenity": "car_wash"
    }
}
,
{
    "lat": 53.2058762,
    "lon": 50.2037097,
    "tags": {
        "amenity": "car_wash"
    }
}
,
{
    "lat": 53.2014048,
    "lon": 50.0995293,
    "tags": {
        "amenity": "pub",
        "name": "На дне",
        "opening_hours": "Mo-Su 12:00-00:00"
    }
}
,
{
    "lat": 53.1912103,
    "lon": 50.1090491,
    "tags": {
        "amenity": "bank",
        "name": "Банк Союз"
    }
}
,
{
    "lat": 53.2101405,
    "lon": 50.1730984,
    "tags": {
        "addr:street": "Московское шоссе",
        "amenity": "pharmacy",
        "name": "63 плюс",
        "opening_hours": "Mo-Su 08:00-21:00",
        "website": "https://aptekiplus.ru/"
    }
}
,
{
    "lat": 53.209458,
    "lon": 50.1723286,
    "tags": {
        "addr:street": "Московское шоссе",
        "amenity": "pharmacy",
        "contact:website": "https://vitaexpress.ru;https://vitaexpress.ru/",
        "name": "Вита Экспресс",
        "opening_hours": "Mo-Fr 08:00-21:00;Sa-Su 09:00-21:00"
    }
}
,
{
    "lat": 53.2090966,
    "lon": 50.1180153,
    "tags": {
        "amenity": "bar",
        "name": "Lounge-bar OMNI",
        "opening_hours": "Mo-Su 12:00-23:00"
    }
}
,
{
    "lat": 53.209791,
    "lon": 50.119632,
    "tags": {
        "amenity": "music_school",
        "name": "Детская музыкальная школа №3 имени М.И. Глинки"
    }
}
,
{
    "lat": 53.2076468,
    "lon": 50.1147197,
    "tags": {
        "amenity": "bank",
        "name": "Форштадт",
        "opening_hours": "Mo-Th 09:00-17:00; Fr 09:00-16:00"
    }
}
,
{
    "lat": 53.2101512,
    "lon": 50.1204408,
    "tags": {
        "amenity": "pharmacy"
    }
}
,
{
    "lat": 53.2167902,
    "lon": 50.1484143,
    "tags": {
        "amenity": "pharmacy",
        "name": "Вита"
    }
}
,
{
    "lat": 53.2112251,
    "lon": 50.1369068,
    "tags": {
        "amenity": "pharmacy",
        "name": "Implozia",
        "opening_hours": "24/7"
    }
}
,
{
    "lat": 53.2029706,
    "lon": 50.1477108,
    "tags": {
        "addr:street": "Московское шоссе",
        "amenity": "pharmacy",
        "name": "Фармленд",
        "opening_hours": "Mo-Su 08:00-21:00",
        "phone": "+78005500393"
    }
}
,
{
    "lat": 53.1966729,
    "lon": 50.1082723,
    "tags": {
        "amenity": "pharmacy",
        "name": "Вита",
        "opening_hours": "Mo-Fr 08:00-21:00; Sa-Su 09:00-20:00"
    }
}
,
{
    "lat": 53.211842,
    "lon": 50.2472335,
    "tags": {
        "addr:street": "улица Победы",
        "amenity": "bank",
        "contact:website": "https://www.unicreditbank.ru/",
        "name": "ЮникредитБанк",
        "opening_hours": "Mo-Fr 09:00-17:30"
    }
}
,
{
    "lat": 53.2306468,
    "lon": 50.1137784,
    "tags": {
        "amenity": "ferry_terminal"
    }
}
,
{
    "lat": 43.9267859,
    "lon": 39.3167691,
    "tags": {
        "amenity": "fast_food",
        "name": "Самара"
    }
}
,
{
    "lat": 53.186367,
    "lon": 50.10118,
    "tags": {
        "amenity": "parking"
    }
}
,
{
    "lat": 53.2207726,
    "lon": 50.2634601,
    "tags": {
        "amenity": "cinema",
        "name": "Пять звёзд"
    }
}
,
{
    "lat": 53.2420851,
    "lon": 50.2288257,
    "tags": {
        "amenity": "pharmacy"
    }
}
,
{
    "lat": 53.2394015,
    "lon": 50.2310375,
    "tags": {
        "amenity": "atm"
    }
}
,
{
    "lat": 53.2216869,
    "lon": 50.1560218,
    "tags": {
        "amenity": "car_wash"
    }
}
,
{
    "lat": 53.2207426,
    "lon": 50.1566816,
    "tags": {
        "amenity": "car_wash",
        "shop": "car_repair"
    }
}
,
{
    "lat": 53.1906826,
    "lon": 50.1901418,
    "tags": {
        "amenity": "parking"
    }
}
,
{
    "lat": 53.2328553,
    "lon": 50.227375,
    "tags": {
        "amenity": "cafe",
        "name": "У Лукоморья"
    }
}
,
{
    "lat": 53.2354753,
    "lon": 50.2223929,
    "tags": {
        "amenity": "bank",
        "contact:website": "https://www.vtb.ru",
        "name": "ВТБ"
    }
}
,
{
    "lat": 53.2363334,
    "lon": 50.224291,
    "tags": {
        "amenity": "library",
        "name": "Детская библиотека №3"
    }
}
,
{
    "lat": 53.2001881,
    "lon": 50.1252724,
    "tags": {
        "amenity": "fast_food",
        "name": "Пиццерия Сицилия"
    }
}
,
{
    "lat": 53.2364345,
    "lon": 50.2247936,
    "tags": {
        "amenity": "dentist",
        "name": "Юрмакс"
    }
}
,
{
    "lat": 53.2390453,
    "lon": 50.2366456,
    "tags": {
        "amenity": "bank",
        "name": "ВСБ",
        "website": "http://vsb.ru/"
    }
}
,
{
    "lat": 53.1792202,
    "lon": 50.0853099,
    "tags": {
        "amenity": "fuel",
        "contact:website": "https://lukoil.ru/",
        "name": "Лукойл",
        "opening_hours": "24/7"
    }
}
,
{
    "lat": 53.3467408,
    "lon": 50.2180615,
    "tags": {
        "addr:street": "улица Сергея Лазо",
        "amenity": "cafe",
        "name": "Томик"
    }
}
,
{
    "lat": 53.2255191,
    "lon": 50.2729572,
    "tags": {
        "amenity": "dentist",
        "name": "Детская стоматологическая поликлиника №2"
    }
}
,
{
    "lat": 53.2259315,
    "lon": 50.2721678,
    "tags": {
        "amenity": "pharmacy"
    }
}
,
{
    "lat": 53.2062208,
    "lon": 50.1617244,
    "tags": {
        "amenity": "pharmacy",
        "name": "Русская аптека",
        "opening_hours": "Mo-Fr 08:30-20:30; Sa-Su 10:00-19:30"
    }
}
,
{
    "lat": 53.240937,
    "lon": 50.2375204,
    "tags": {
        "amenity": "car_wash"
    }
}
,
{
    "lat": 53.2315288,
    "lon": 50.2244831,
    "tags": {
        "amenity": "pharmacy"
    }
}
,
{
    "lat": 53.232826,
    "lon": 50.2273047,
    "tags": {
        "amenity": "pharmacy"
    }
}
,
{
    "lat": 53.2369744,
    "lon": 50.2259636,
    "tags": {
        "amenity": "pharmacy"
    }
}
,
{
    "lat": 53.2373596,
    "lon": 50.2165866,
    "tags": {
        "amenity": "pharmacy"
    }
}
,
{
    "lat": 53.1986823,
    "lon": 50.1512633,
    "tags": {
        "amenity": "cafe",
        "name": "антикафе Good Story",
        "opening_hours": "Mo-Th,Su 09:00-23:00; Fr,Sa 00:00-01:00,09:00-24:00",
        "phone": "+7 927 6000800",
        "website": "vk.com/mygoodstory"
    }
}
,
{
    "lat": 53.3852664,
    "lon": 50.1638623,
    "tags": {
        "amenity": "car_wash"
    }
}
,
{
    "lat": 53.3949391,
    "lon": 50.1542011,
    "tags": {
        "amenity": "car_wash"
    }
}
,
{
    "lat": 53.1871178,
    "lon": 50.0933281,
    "tags": {
        "amenity": "fast_food"
    }
}
,
{
    "lat": 53.1857613,
    "lon": 50.0874969,
    "tags": {
        "amenity": "bench"
    }
}
,
{
    "lat": 53.1855081,
    "lon": 50.0873277,
    "tags": {
        "amenity": "bench"
    }
}
,
{
    "lat": 53.1856849,
    "lon": 50.0879338,
    "tags": {
        "amenity": "bench"
    }
}
,
{
    "lat": 53.1854084,
    "lon": 50.0877783,
    "tags": {
        "amenity": "bench"
    }
}
,
{
    "lat": 53.1879664,
    "lon": 50.091413,
    "tags": {
        "amenity": "pharmacy"
    }
}
,
{
    "lat": 53.192078,
    "lon": 50.1903768,
    "tags": {
        "amenity": "pharmacy",
        "name": "Вита",
        "opening_hours": "24/7",
        "phone": "+7-846-264-83-24"
    }
}
,
{
    "lat": 53.233575,
    "lon": 50.1866223,
    "tags": {
        "amenity": "pharmacy",
        "contact:website": "https://vitaexpress.ru/",
        "name": "Вита Экспресс",
        "opening_hours": "Mo-Su 08:00-23:00"
    }
}
,
{
    "lat": 53.2464923,
    "lon": 50.2113028,
    "tags": {
        "amenity": "pharmacy",
        "contact:website": "https://vitaexpress.ru/",
        "name": "Вита Экспресс",
        "opening_hours": "Mo-Fr 08:00-21:00;Sa-Su 09:00-21:00",
        "website": "https://vitaexpress.ru"
    }
}
,
{
    "lat": 53.1898711,
    "lon": 50.1307677,
    "tags": {
        "amenity": "pharmacy",
        "name": "Астра",
        "opening_hours": "24/7",
        "phone": "+7-846-336-39-89"
    }
}
,
{
    "lat": 53.2493793,
    "lon": 50.2238116,
    "tags": {
        "amenity": "pharmacy",
        "contact:website": "https://vitaexpress.ru/",
        "name": "Вита Экспресс",
        "opening_hours": "Mo-Su 08:00-23:00"
    }
}
,
{
    "lat": 53.2530379,
    "lon": 50.2057385,
    "tags": {
        "amenity": "pharmacy",
        "contact:website": "https://vitaexpress.ru/",
        "name": "Вита Экспресс",
        "opening_hours": "Mo-Fr 08:00-22:00;Sa-Su 09:00-21:00",
        "website": "https://vitaexpress.ru"
    }
}
,
{
    "lat": 53.1988011,
    "lon": 50.1109215,
    "tags": {
        "amenity": "pharmacy",
        "contact:website": "https://vitaexpress.ru/",
        "name": "Вита Экспресс",
        "opening_hours": "Mo-Fr 08:00-21:00;Sa-Su 09:00-21:00",
        "website": "https://vitaexpress.ru"
    }
}
,
{
    "lat": 53.2597571,
    "lon": 50.2169308,
    "tags": {
        "amenity": "pharmacy",
        "contact:website": "https://vitaexpress.ru/",
        "name": "Вита Центральная",
        "opening_hours": "Mo-Su 00:00-23:50"
    }
}
,
{
    "lat": 53.2354276,
    "lon": 50.276856,
    "tags": {
        "amenity": "pharmacy",
        "contact:website": "https://vitaexpress.ru/",
        "name": "Вита",
        "opening_hours": "24/7"
    }
}
,
{
    "lat": 53.1866119,
    "lon": 50.0957485,
    "tags": {
        "amenity": "pharmacy",
        "contact:website": "https://vitaexpress.ru/",
        "name": "Вита Экспресс",
        "opening_hours": "Mo-Fr 08:00-21:00;Sa-Su 09:00-21:00"
    }
}
,
{
    "lat": 53.256939,
    "lon": 50.2097517,
    "tags": {
        "amenity": "pharmacy",
        "name": "Вита",
        "opening_hours": "Mo-Sa 08:00-21:00; Su 09:00-20:00",
        "phone": "+7 (846) 224-89-39"
    }
}
,
{
    "lat": 53.2597535,
    "lon": 50.2399806,
    "tags": {
        "amenity": "pharmacy",
        "contact:website": "https://vitaexpress.ru/",
        "name": "Вита Экспресс",
        "opening_hours": "Mo-Sa 08:00-21:00;Su 08:00-20:00"
    }
}
,
{
    "lat": 53.350598,
    "lon": 50.2158008,
    "tags": {
        "amenity": "pharmacy",
        "contact:website": "https://vitaexpress.ru/",
        "name": "Вита Экспресс",
        "opening_hours": "Mo-Fr 08:00-21:00;Sa-Su 09:00-20:00"
    }
}
,
{
    "lat": 53.2182019,
    "lon": 50.2232295,
    "tags": {
        "amenity": "pharmacy",
        "contact:website": "https://vitaexpress.ru/",
        "name": "Вита Экспресс",
        "opening_hours": "Mo-Fr 08:00-21:00;Sa-Su 09:00-20:00"
    }
}
,
{
    "lat": 53.3884476,
    "lon": 50.1690945,
    "tags": {
        "amenity": "pharmacy",
        "contact:website": "https://vitaexpress.ru/",
        "name": "Вита Экспресс",
        "opening_hours": "Mo-Su 08:00-22:00"
    }
}
,
{
    "lat": 53.2377212,
    "lon": 50.2235366,
    "tags": {
        "amenity": "pharmacy",
        "contact:website": "https://vitaexpress.ru/",
        "name": "Вита Экспресс",
        "opening_hours": "Mo-Fr 08:00-21:00;Sa-Su 09:00-21:00"
    }
}
,
{
    "lat": 53.2486311,
    "lon": 50.3294657,
    "tags": {
        "amenity": "pharmacy",
        "name": "Вита",
        "opening_hours": "Mo-Fr 08:00-20:00; Sa-Su 09:00-19:00",
        "phone": "+7-846-931-29-62"
    }
}
,
{
    "lat": 53.2052736,
    "lon": 50.118862,
    "tags": {
        "amenity": "pharmacy",
        "name": "Вита",
        "opening_hours": "Mo-Su 09:00-21:00",
        "phone": "+7-846-337-24-27"
    }
}
,
{
    "lat": 53.1937246,
    "lon": 50.1992297,
    "tags": {
        "amenity": "pharmacy",
        "contact:website": "https://vitaexpress.ru/",
        "name": "Вита Экспресс",
        "opening_hours": "Mo-Fr 08:00-21:00;Sa-Su 09:00-21:00"
    }
}
,
{
    "lat": 53.1848217,
    "lon": 50.0899702,
    "tags": {
        "amenity": "pharmacy",
        "contact:website": "https://vitaexpress.ru/",
        "name": "Вита Экспресс",
        "opening_hours": "Mo-Fr 08:00-21:00;Sa-Su 09:00-20:00"
    }
}
,
{
    "lat": 53.3462713,
    "lon": 50.2288963,
    "tags": {
        "amenity": "pharmacy",
        "contact:website": "https://vitaexpress.ru/",
        "name": "Вита Экспресс",
        "opening_hours": "Mo-Tu,Fr 08:00-22:00;Sa-Su 09:00-20:00;Th 08:00-18:00;We 08:00-20:00"
    }
}
,
{
    "lat": 53.2013321,
    "lon": 50.2244653,
    "tags": {
        "amenity": "pharmacy",
        "name": "Вита",
        "opening_hours": "Mo-Sa 09:00-22:00; Su 09:00-20:00",
        "phone": "+7-846-222-53-34"
    }
}
,
{
    "lat": 53.212938,
    "lon": 50.2413121,
    "tags": {
        "amenity": "pharmacy",
        "contact:website": "https://vitaexpress.ru/",
        "name": "Вита Экспресс",
        "opening_hours": "Mo-Fr 08:00-20:00;Sa-Su 09:00-20:00"
    }
}
,
{
    "lat": 53.2007919,
    "lon": 50.2057125,
    "tags": {
        "amenity": "pharmacy",
        "contact:website": "https://vitaexpress.ru/",
        "name": "Вита Экспресс",
        "opening_hours": "Mo-Sa 08:00-21:00;Su 09:00-20:00"
    }
}
,
{
    "lat": 53.1884631,
    "lon": 50.1738773,
    "tags": {
        "amenity": "pharmacy",
        "name": "Вита",
        "opening_hours": "Mo-Sa 08:00-21:00; Su 09:00-21:00",
        "phone": "+7-846-270-78-05"
    }
}
,
{
    "lat": 53.1946939,
    "lon": 50.1063262,
    "tags": {
        "amenity": "pharmacy",
        "contact:website": "https://vitaexpress.ru/",
        "name": "Вита Экспресс",
        "opening_hours": "Mo-Fr 08:00-22:00;Sa-Su 09:00-22:00"
    }
}
,
{
    "lat": 53.1353497,
    "lon": 50.1033523,
    "tags": {
        "amenity": "pharmacy",
        "name": "Вита",
        "opening_hours": "Mo-Sa 08:00-21:00; Su 09:00-19:00",
        "phone": "+7-846-330-09-07"
    }
}
,
{
    "lat": 53.1188719,
    "lon": 50.0857084,
    "tags": {
        "amenity": "pharmacy",
        "contact:website": "https://vitaexpress.ru/",
        "name": "Вита Экспресс",
        "opening_hours": "Mo-Fr 08:00-22:00;Sa-Su 09:00-21:00"
    }
}
,
{
    "lat": 53.2307705,
    "lon": 50.2120996,
    "tags": {
        "amenity": "pharmacy",
        "contact:website": "https://vitaexpress.ru/",
        "name": "Вита Центральная",
        "opening_hours": "24/7"
    }
}
,
{
    "lat": 53.20083,
    "lon": 50.1275561,
    "tags": {
        "amenity": "cafe",
        "name": "Бамбуча"
    }
}
,
{
    "lat": 53.2051811,
    "lon": 50.1232812,
    "tags": {
        "amenity": "bank",
        "name": "Ситибанк"
    }
}
,
{
    "lat": 53.2023101,
    "lon": 50.1267711,
    "tags": {
        "amenity": "cafe"
    }
}
,
{
    "lat": 53.2051797,
    "lon": 50.1232018,
    "tags": {
        "amenity": "atm"
    }
}
,
{
    "lat": 53.2024069,
    "lon": 50.1268344,
    "tags": {
        "amenity": "bank",
        "name": "Бинбанк"
    }
}
,
{
    "lat": 53.4702029,
    "lon": 49.9087697,
    "tags": {
        "amenity": "toilets"
    }
}
,
{
    "lat": 53.2004989,
    "lon": 50.1280903,
    "tags": {
        "amenity": "waste_disposal"
    }
}
,
{
    "lat": 53.2169159,
    "lon": 50.1487157,
    "tags": {
        "amenity": "atm"
    }
}
,
{
    "lat": 53.21513,
    "lon": 50.2578378,
    "tags": {
        "amenity": "restaurant",
        "name": "Пиццерия"
    }
}
,
{
    "lat": 53.2141897,
    "lon": 50.2683675,
    "tags": {
        "amenity": "car_wash"
    }
}
,
{
    "lat": 53.2254834,
    "lon": 50.1478766,
    "tags": {
        "amenity": "ferry_terminal",
        "name": "Октябрьский спуск",
        "public_transport": "station"
    }
}
,
{
    "lat": 53.1972287,
    "lon": 50.1898166,
    "tags": {
        "amenity": "car_wash"
    }
}
,
{
    "lat": 53.1967329,
    "lon": 50.1901116,
    "tags": {
        "amenity": "cafe"
    }
}
,
{
    "lat": 53.3469705,
    "lon": 50.2176276,
    "tags": {
        "addr:street": "улица Сергея Лазо",
        "amenity": "fire_station",
        "name": "Пажарная"
    }
}
,
{
    "lat": 53.3512607,
    "lon": 50.2150768,
    "tags": {
        "amenity": "parking"
    }
}
,
{
    "lat": 53.2353056,
    "lon": 50.2237121,
    "tags": {
        "amenity": "waste_disposal"
    }
}
,
{
    "lat": 53.2361724,
    "lon": 50.223763,
    "tags": {
        "amenity": "recycling"
    }
}
,
{
    "lat": 53.2375305,
    "lon": 50.2296478,
    "tags": {
        "amenity": "waste_disposal"
    }
}
,
{
    "lat": 53.2467733,
    "lon": 50.1902581,
    "tags": {
        "amenity": "atm"
    }
}
,
{
    "lat": 53.246922,
    "lon": 50.1884189,
    "tags": {
        "amenity": "pub",
        "name": "бар SEASON"
    }
}
,
{
    "lat": 53.2472165,
    "lon": 50.1885804,
    "tags": {
        "amenity": "kindergarten",
        "name": "детский сад Лилу"
    }
}
,
{
    "lat": 53.2568708,
    "lon": 50.3013585,
    "tags": {
        "amenity": "cafe"
    }
}
,
{
    "lat": 53.2227593,
    "lon": 50.1733791,
    "tags": {
        "amenity": "atm",
        "name": "Сбербанк"
    }
}
,
{
    "lat": 53.1776032,
    "lon": 50.186063,
    "tags": {
        "amenity": "waste_basket"
    }
}
,
{
    "lat": 53.2310282,
    "lon": 50.2722469,
    "tags": {
        "amenity": "bank",
        "name": "Сбербанк"
    }
}
,
{
    "lat": 53.2309035,
    "lon": 50.2723092,
    "tags": {
        "amenity": "pharmacy",
        "name": "Аптека"
    }
}
,
{
    "lat": 53.2065996,
    "lon": 50.2119871,
    "tags": {
        "amenity": "bar",
        "name": "Caledonia"
    }
}
,
{
    "lat": 53.212068,
    "lon": 50.2208484,
    "tags": {
        "addr:street": "улица Антонова-Овсеенко",
        "amenity": "clinic",
        "name": "Городская поликлиника №10"
    }
}
,
{
    "lat": 53.2131799,
    "lon": 50.2226336,
    "tags": {
        "amenity": "atm",
        "name": "Банкомат, ВБРР, ОАО Всероссийский банк развития регионов"
    }
}
,
{
    "lat": 53.2087961,
    "lon": 50.229595,
    "tags": {
        "addr:street": "улица Свободы",
        "amenity": "place_of_worship",
        "name": "Храм в честь иконы Божией Матери Утоли моя печали",
        "website": "http://www.utolipechali.ru/"
    }
}
,
{
    "lat": 53.2122803,
    "lon": 50.2288971,
    "tags": {
        "addr:street": "улица 22-го Партсъезда",
        "amenity": "bank",
        "name": "Сбербанк"
    }
}
,
{
    "lat": 53.2121569,
    "lon": 50.2289904,
    "tags": {
        "amenity": "atm",
        "name": "Банкомат Сбербанка"
    }
}
,
{
    "lat": 53.2063696,
    "lon": 50.2767107,
    "tags": {
        "addr:street": "Заводское шоссе",
        "amenity": "university",
        "name": "Российский государственный гуманитарный университет"
    }
}
,
{
    "lat": 53.2100184,
    "lon": 50.2212463,
    "tags": {
        "amenity": "pharmacy",
        "name": "\"Аптечка\""
    }
}
,
{
    "lat": 53.2044194,
    "lon": 50.2288862,
    "tags": {
        "amenity": "atm"
    }
}
,
{
    "lat": 53.2053077,
    "lon": 50.2330483,
    "tags": {
        "amenity": "bank",
        "name": "ОАО КБ Солидарность"
    }
}
,
{
    "lat": 53.2056607,
    "lon": 50.2339389,
    "tags": {
        "amenity": "dentist",
        "name": "Стоматологическая поликлиника №3"
    }
}
,
{
    "lat": 53.2061281,
    "lon": 50.2345801,
    "tags": {
        "amenity": "pharmacy",
        "name": "Биомед"
    }
}
,
{
    "lat": 53.2055169,
    "lon": 50.2358424,
    "tags": {
        "addr:street": "Физкультурная улица",
        "amenity": "pharmacy",
        "contact:website": "https://vitaexpress.ru/",
        "name": "Вита Экспресс",
        "opening_hours": "Mo-Sa 08:00-21:00;Su 09:00-20:00"
    }
}
,
{
    "lat": 53.2058245,
    "lon": 50.2327904,
    "tags": {
        "amenity": "bank",
        "name": "Первый Республиканский Банк"
    }
}
,
{
    "lat": 53.2062849,
    "lon": 50.2337015,
    "tags": {
        "amenity": "bank",
        "contact:website": "https://www.vtb.ru",
        "name": "ВТБ"
    }
}
,
{
    "lat": 53.2071075,
    "lon": 50.2338676,
    "tags": {
        "amenity": "hospital",
        "name": "Самарский психоневрологический диспансер"
    }
}
,
{
    "lat": 53.234916,
    "lon": 50.2212191,
    "tags": {
        "amenity": "bank",
        "name": "Сбербанк: дополнительный офис №6991/0289",
        "phone": "953-10-03",
        "website": "http://sbrf.ru/"
    }
}
,
{
    "lat": 53.3209831,
    "lon": 50.2962248,
    "tags": {
        "amenity": "car_wash"
    }
}
,
{
    "lat": 53.3204222,
    "lon": 50.296032,
    "tags": {
        "amenity": "car_wash",
        "name": "флагман",
        "opening_hours": "08:00-20:00"
    }
}
,
{
    "lat": 53.1847582,
    "lon": 50.1910671,
    "tags": {
        "amenity": "car_wash"
    }
}
,
{
    "lat": 53.3066277,
    "lon": 50.1950741,
    "tags": {
        "amenity": "place_of_worship"
    }
}
,
{
    "lat": 53.4081704,
    "lon": 50.1474247,
    "tags": {
        "amenity": "toilets"
    }
}
,
{
    "lat": 53.486495,
    "lon": 49.8504413,
    "tags": {
        "amenity": "hospital",
        "name": "Поликлиника №4",
        "phone": "+7 (846) 977-30-93"
    }
}
,
{
    "lat": 53.5158252,
    "lon": 49.841322,
    "tags": {
        "amenity": "fuel",
        "building": "yes",
        "name": "Юниойл"
    }
}
,
{
    "lat": 53.5159337,
    "lon": 49.8408392,
    "tags": {
        "amenity": "fuel",
        "name": "АГЗС"
    }
}
,
{
    "lat": 53.4844961,
    "lon": 49.8535001,
    "tags": {
        "addr:street": "улица Труда",
        "amenity": "library",
        "name": "Библиотека"
    }
}
,
{
    "lat": 53.4844253,
    "lon": 49.8502663,
    "tags": {
        "amenity": "post_office",
        "contact:website": "https://www.pochta.ru",
        "name": "Прибрежный 443902",
        "opening_hours": "Tu-Fr 09:00-13:00,14:00-18:00; Sa 09:00-13:00,14:00-16:00"
    }
}
,
{
    "lat": 53.4864503,
    "lon": 49.8512667,
    "tags": {
        "amenity": "pharmacy",
        "contact:website": "https://vitaexpress.ru/",
        "name": "Вита Экспресс",
        "opening_hours": "Mo-Fr 08:00-20:00;Sa-Su 09:00-19:00",
        "website": "https://vitaexpress.ru"
    }
}
,
{
    "lat": 53.4894014,
    "lon": 49.8475262,
    "tags": {
        "amenity": "pharmacy",
        "name": "Аптека"
    }
}
,
{
    "lat": 53.4847481,
    "lon": 49.8504403,
    "tags": {
        "amenity": "pharmacy",
        "name": "Аптека"
    }
}
,
{
    "lat": 53.4874084,
    "lon": 49.8462066,
    "tags": {
        "amenity": "vehicle_inspection",
        "name": "Пункт техосмотра"
    }
}
,
{
    "lat": 53.2125475,
    "lon": 50.2368206,
    "tags": {
        "amenity": "waste_basket"
    }
}
,
{
    "lat": 53.2429641,
    "lon": 50.1849642,
    "tags": {
        "amenity": "post_office",
        "contact:website": "https://www.pochta.ru",
        "name": "Самара 443124",
        "opening_hours": "Mo-Fr 08:00-20:00; Sa 09:00-18:00; Su off"
    }
}
,
{
    "lat": 53.1884984,
    "lon": 50.09458,
    "tags": {
        "amenity": "kindergarten",
        "name": "Детский сад № 49"
    }
}
,
{
    "lat": 53.2067504,
    "lon": 50.221757,
    "tags": {
        "amenity": "drinking_water"
    }
}
,
{
    "lat": 53.5095269,
    "lon": 50.1405507,
    "tags": {
        "amenity": "parking"
    }
}
,
{
    "lat": 53.244361,
    "lon": 50.2454601,
    "tags": {
        "amenity": "parking"
    }
}
,
{
    "lat": 53.320603,
    "lon": 50.3091943,
    "tags": {
        "addr:street": "бульвар Ивана Финютина",
        "amenity": "bank",
        "name": "Сбербанк"
    }
}
,
{
    "lat": 53.2257518,
    "lon": 50.2067186,
    "tags": {
        "amenity": "training",
        "name": "Детская школа искусств № 4"
    }
}
,
{
    "lat": 53.2483688,
    "lon": 50.2142636,
    "tags": {
        "amenity": "fast_food",
        "name": "Додо Пицца",
        "opening_hours": "24/7",
        "phone": "8 800 3330060"
    }
}
,
{
    "lat": 53.192922,
    "lon": 50.2509362,
    "tags": {
        "amenity": "parking"
    }
}
,
{
    "lat": 53.2016509,
    "lon": 50.1097087,
    "tags": {
        "amenity": "cafe",
        "name": "Город"
    }
}
,
{
    "lat": 53.3894927,
    "lon": 50.1727411,
    "tags": {
        "amenity": "cafe"
    }
}
,
{
    "lat": 53.3894445,
    "lon": 50.1727061,
    "tags": {
        "amenity": "toilets"
    }
}
,
{
    "lat": 53.2039312,
    "lon": 50.1139689,
    "tags": {
        "amenity": "bicycle_parking"
    }
}
,
{
    "lat": 53.2172501,
    "lon": 50.2114074,
    "tags": {
        "amenity": "bicycle_parking"
    }
}
,
{
    "lat": 53.2099994,
    "lon": 50.1386159,
    "tags": {
        "amenity": "restaurant",
        "name": "Черчилль",
        "opening_hours": "Mo-Su 12:00-24:00",
        "phone": "+7 846 3130000",
        "website": "https://churchill.perfecto-group.ru"
    }
}
,
{
    "lat": 53.1948989,
    "lon": 50.2472659,
    "tags": {
        "amenity": "bicycle_parking"
    }
}
,
{
    "lat": 53.200051,
    "lon": 50.105207,
    "tags": {
        "amenity": "bicycle_parking"
    }
}
,
{
    "lat": 53.203322,
    "lon": 50.1434696,
    "tags": {
        "amenity": "bicycle_parking"
    }
}
,
{
    "lat": 53.2048204,
    "lon": 50.1235222,
    "tags": {
        "amenity": "bicycle_parking"
    }
}
,
{
    "lat": 53.2227917,
    "lon": 50.1729189,
    "tags": {
        "amenity": "bicycle_parking"
    }
}
,
{
    "lat": 53.2013066,
    "lon": 50.1161348,
    "tags": {
        "addr:street": "Самарская улица",
        "amenity": "bank",
        "name": "Сбербанк"
    }
}
,
{
    "lat": 53.2334967,
    "lon": 50.1829261,
    "tags": {
        "amenity": "pharmacy",
        "name": "Медмагазин.ру",
        "opening_hours": "Mo-Su 09:00-20:00"
    }
}
,
{
    "lat": 53.2480167,
    "lon": 50.2383542,
    "tags": {
        "amenity": "bank",
        "name": "Волго-Камский Банк",
        "opening_hours": "Mo-Fr 09:00-13:00,14:00-16:00; Sa 09:00-13:00,14:00-15:00; Su 10:00-15:00"
    }
}
,
{
    "lat": 53.2481174,
    "lon": 50.2385896,
    "tags": {
        "amenity": "kindergarten",
        "name": "Волшебная Страна"
    }
}
,
{
    "lat": 53.2424937,
    "lon": 50.2344665,
    "tags": {
        "amenity": "bank",
        "name": "Сбербанк: дополнительный офис №6991/0258",
        "phone": "+7 846 9561667",
        "website": "https://www.sberbank.ru/"
    }
}
,
{
    "lat": 53.247708,
    "lon": 50.2377211,
    "tags": {
        "amenity": "bank",
        "name": "Сбербанк: дополнительный офис №6991/0277",
        "phone": "+7 846 3312900",
        "website": "https://www.sberbank.ru/"
    }
}
,
{
    "lat": 53.2474645,
    "lon": 50.2277315,
    "tags": {
        "amenity": "waste_disposal"
    }
}
,
{
    "lat": 53.2479939,
    "lon": 50.227037,
    "tags": {
        "amenity": "waste_disposal"
    }
}
,
{
    "lat": 53.2482646,
    "lon": 50.2358672,
    "tags": {
        "amenity": "post_office",
        "contact:website": "https://www.pochta.ru",
        "name": "Самара 443114",
        "opening_hours": "Mo-Fr 08:00-20:00; Sa-Su 09:00-18:00"
    }
}
,
{
    "lat": 53.3185497,
    "lon": 50.3058245,
    "tags": {
        "amenity": "doctors",
        "name": "Имплозия"
    }
}
,
{
    "lat": 53.3188227,
    "lon": 50.3066244,
    "tags": {
        "amenity": "bar",
        "name": "Хмельное золото"
    }
}
,
{
    "lat": 53.3197999,
    "lon": 50.3087914,
    "tags": {
        "amenity": "cafe",
        "name": "Pizzashop"
    }
}
,
{
    "lat": 53.3194727,
    "lon": 50.3080465,
    "tags": {
        "amenity": "pharmacy",
        "name": "Фитоаптека"
    }
}
,
{
    "lat": 53.3200192,
    "lon": 50.309147,
    "tags": {
        "amenity": "pharmacy",
        "contact:website": "https://vitaexpress.ru/",
        "name": "Вита Экспресс",
        "opening_hours": "Mo-Sa 08:00-23:00;Su 09:00-23:00",
        "website": "https://vitaexpress.ru"
    }
}
,
{
    "lat": 53.3211355,
    "lon": 50.3116363,
    "tags": {
        "amenity": "bank",
        "name": "Кошелевбанк"
    }
}
,
{
    "lat": 53.3210903,
    "lon": 50.3117412,
    "tags": {
        "amenity": "post_office",
        "contact:website": "https://www.pochta.ru",
        "name": "Самара 443073",
        "opening_hours": "Tu-Sa 10:00-13:00,14:00-19:00"
    }
}
,
{
    "lat": 53.3209599,
    "lon": 50.3114053,
    "tags": {
        "amenity": "driving_school"
    }
}
,
{
    "lat": 53.3203542,
    "lon": 50.3099482,
    "tags": {
        "amenity": "restaurant",
        "name": "Sushi fusion"
    }
}
,
{
    "lat": 53.3199454,
    "lon": 50.309238,
    "tags": {
        "amenity": "dentist",
        "name": "Стоматология"
    }
}
,
{
    "lat": 53.3196773,
    "lon": 50.3083869,
    "tags": {
        "amenity": "bar",
        "name": "Дунаевъ",
        "opening_hours": "10:00-23:00"
    }
}
,
{
    "lat": 53.3187806,
    "lon": 50.3066817,
    "tags": {
        "amenity": "cafe",
        "name": "Кулинария, пицца"
    }
}
,
{
    "lat": 53.3179627,
    "lon": 50.3047113,
    "tags": {
        "amenity": "arts_centre",
        "name": "Изостудия;Январь экспертиза"
    }
}
,
{
    "lat": 53.3179079,
    "lon": 50.3047235,
    "tags": {
        "amenity": "veterinary",
        "name": "Леопольд"
    }
}
,
{
    "lat": 53.3178199,
    "lon": 50.3048513,
    "tags": {
        "amenity": "driving_school"
    }
}
,
{
    "lat": 53.3178639,
    "lon": 50.3042962,
    "tags": {
        "amenity": "bar",
        "name": "Жигулёвское пиво"
    }
}
,
{
    "lat": 53.2037734,
    "lon": 50.1074223,
    "tags": {
        "amenity": "bar",
        "name": "Chicago"
    }
}
,
{
    "lat": 53.2054794,
    "lon": 50.1101421,
    "tags": {
        "amenity": "restaurant",
        "name": "Волга"
    }
}
,
{
    "lat": 53.2151214,
    "lon": 50.1651412,
    "tags": {
        "amenity": "waste_disposal"
    }
}
,
{
    "lat": 53.2244877,
    "lon": 50.2953999,
    "tags": {
        "amenity": "parking"
    }
}
,
{
    "lat": 53.1800454,
    "lon": 50.0796215,
    "tags": {
        "amenity": "cafe",
        "name": "Хачапури"
    }
}
,
{
    "lat": 53.2305433,
    "lon": 50.2478624,
    "tags": {
        "addr:street": "проспект Кирова",
        "amenity": "bank",
        "name": "Сбербанк"
    }
}
,
{
    "lat": 53.2492651,
    "lon": 50.2675638,
    "tags": {
        "amenity": "fuel",
        "name": "ТНК"
    }
}
,
{
    "lat": 53.2495283,
    "lon": 50.2683578,
    "tags": {
        "amenity": "fuel",
        "name": "Лукойл"
    }
}
,
{
    "lat": 53.2491575,
    "lon": 50.2685536,
    "tags": {
        "amenity": "fuel",
        "name": "АГЗС"
    }
}
,
{
    "lat": 53.4733239,
    "lon": 49.9087369,
    "tags": {
        "amenity": "drinking_water"
    }
}
,
{
    "lat": 53.1869142,
    "lon": 50.0882535,
    "tags": {
        "amenity": "restaurant",
        "name": "Джин-Джу"
    }
}
,
{
    "lat": 53.2134251,
    "lon": 50.2504329,
    "tags": {
        "amenity": "pharmacy"
    }
}
,
{
    "lat": 53.213507,
    "lon": 50.2506141,
    "tags": {
        "amenity": "bank"
    }
}
,
{
    "lat": 53.2122658,
    "lon": 50.2479537,
    "tags": {
        "addr:street": "улица Победы",
        "amenity": "bank",
        "name": "Экспресс-волга банк"
    }
}
,
{
    "lat": 53.317201,
    "lon": 50.3067465,
    "tags": {
        "amenity": "waste_disposal"
    }
}
,
{
    "lat": 53.3188564,
    "lon": 50.3104214,
    "tags": {
        "amenity": "waste_disposal"
    }
}
,
{
    "lat": 53.3203238,
    "lon": 50.3138275,
    "tags": {
        "amenity": "waste_disposal"
    }
}
,
{
    "lat": 53.3126929,
    "lon": 50.2935512,
    "tags": {
        "amenity": "car_wash",
        "opening_hours": "09:00-21:00"
    }
}
,
{
    "lat": 53.3250571,
    "lon": 50.3018458,
    "tags": {
        "amenity": "parking_entrance",
        "opening_hours": "08:00-23:00"
    }
}
,
{
    "lat": 53.325102,
    "lon": 50.305185,
    "tags": {
        "amenity": "parking_entrance",
        "opening_hours": "08:00-23:00"
    }
}
,
{
    "lat": 53.3251027,
    "lon": 50.3067222,
    "tags": {
        "amenity": "parking_entrance",
        "opening_hours": "08:00-23:00"
    }
}
,
{
    "lat": 53.3251036,
    "lon": 50.308418,
    "tags": {
        "amenity": "parking_entrance",
        "opening_hours": "08:00-23:00"
    }
}
,
{
    "lat": 53.3252586,
    "lon": 50.3091548,
    "tags": {
        "amenity": "parking_entrance",
        "opening_hours": "08:00-23:00"
    }
}
,
{
    "lat": 53.3268759,
    "lon": 50.3091525,
    "tags": {
        "amenity": "parking_entrance",
        "opening_hours": "08:00-23:00"
    }
}
,
{
    "lat": 53.4718864,
    "lon": 49.9122926,
    "tags": {
        "amenity": "drinking_water"
    }
}
,
{
    "lat": 53.272042,
    "lon": 50.2252876,
    "tags": {
        "amenity": "car_wash"
    }
}
,
{
    "lat": 53.3256765,
    "lon": 50.3091542,
    "tags": {
        "amenity": "parking_entrance",
        "opening_hours": "08:00-23:00"
    }
}
,
{
    "lat": 53.3261182,
    "lon": 50.3091536,
    "tags": {
        "amenity": "parking_entrance",
        "opening_hours": "08:00-23:00"
    }
}
,
{
    "lat": 53.3265516,
    "lon": 50.3091529,
    "tags": {
        "amenity": "parking_entrance",
        "opening_hours": "08:00-23:00"
    }
}
,
{
    "lat": 53.3251017,
    "lon": 50.3046131,
    "tags": {
        "amenity": "parking_entrance",
        "opening_hours": "08:00-23:00"
    }
}
,
{
    "lat": 53.3435248,
    "lon": 50.2158113,
    "tags": {
        "amenity": "library",
        "name": "Библиотека отделение №35"
    }
}
,
{
    "lat": 53.344833,
    "lon": 50.2157997,
    "tags": {
        "amenity": "doctors",
        "name": "Поликлиническое отделение №1",
        "opening_hours": "Mo-Fr 08:00-20:00; Sa 08:00-16:00",
        "phone": "+7 (846) 307-77-17",
        "website": "http://sgb7.ru"
    }
}
,
{
    "lat": 53.3384311,
    "lon": 50.2259005,
    "tags": {
        "amenity": "doctors",
        "name": "Травмпункт"
    }
}
,
{
    "lat": 53.3435895,
    "lon": 50.2166261,
    "tags": {
        "amenity": "cafe",
        "name": "Чайная \"Семь Сов\""
    }
}
,
{
    "lat": 53.2064943,
    "lon": 50.1883233,
    "tags": {
        "amenity": "waste_basket"
    }
}
,
{
    "lat": 53.2074335,
    "lon": 50.1856347,
    "tags": {
        "amenity": "waste_basket"
    }
}
,
{
    "lat": 53.2099297,
    "lon": 50.1543352,
    "tags": {
        "amenity": "pharmacy"
    }
}
,
{
    "lat": 53.2101389,
    "lon": 50.1867674,
    "tags": {
        "amenity": "car_wash",
        "name": "Бумер",
        "opening_hours": "24/7"
    }
}
,
{
    "lat": 53.2062098,
    "lon": 50.1231456,
    "tags": {
        "amenity": "pharmacy",
        "name": "Алия"
    }
}
,
{
    "lat": 53.206115,
    "lon": 50.1231242,
    "tags": {
        "amenity": "restaurant",
        "name": "Мама Чоли"
    }
}
,
{
    "lat": 53.4711801,
    "lon": 49.9122059,
    "tags": {
        "amenity": "toilets"
    }
}
,
{
    "lat": 53.2033025,
    "lon": 50.1453189,
    "tags": {
        "amenity": "cafe",
        "name": "La Skala"
    }
}
,
{
    "lat": 53.2436867,
    "lon": 50.2297991,
    "tags": {
        "amenity": "fast_food",
        "name": "KillFish"
    }
}
,
{
    "lat": 53.1996944,
    "lon": 50.1663753,
    "tags": {
        "amenity": "veterinary",
        "name": "Друг"
    }
}
,
{
    "lat": 53.2001985,
    "lon": 50.1659265,
    "tags": {
        "addr:street": "улица Гагарина",
        "amenity": "pharmacy",
        "name": "Алия",
        "opening_hours": "08:00-20:00"
    }
}
,
{
    "lat": 53.1998034,
    "lon": 50.172913,
    "tags": {
        "amenity": "pharmacy",
        "contact:website": "https://vitaexpress.ru/",
        "name": "Вита Экспресс",
        "opening_hours": "Mo-Fr 08:00-21:00;Sa-Su 09:00-20:00"
    }
}
,
{
    "lat": 53.2006263,
    "lon": 50.1665192,
    "tags": {
        "amenity": "fast_food",
        "name": "Кунжут",
        "shop": "bakery"
    }
}
,
{
    "lat": 53.2001861,
    "lon": 50.1651625,
    "tags": {
        "amenity": "pub",
        "name": "100 бочек",
        "opening_hours": "Mo-Th,Su 10:00-22:00; Fr-Sa 10:00-23:00"
    }
}
,
{
    "lat": 53.1938812,
    "lon": 50.1745141,
    "tags": {
        "amenity": "clinic",
        "name": "Детская поликлиника №1",
        "opening_hours": "Mo-Fr 07:30-20:00; Sa-Su 08:00-16:00"
    }
}
,
{
    "lat": 53.2082029,
    "lon": 50.1750802,
    "tags": {
        "amenity": "bank",
        "name": "Сбербанк: дополнительный офис №6991/0238",
        "opening_hours": "Mo-Fr 09:00-18:00; Sa 09:00-15:00"
    }
}
,
{
    "lat": 53.1904968,
    "lon": 50.112024,
    "tags": {
        "amenity": "atm"
    }
}
,
{
    "lat": 53.3211027,
    "lon": 50.3070826,
    "tags": {
        "amenity": "waste_disposal"
    }
}
,
{
    "lat": 53.1944167,
    "lon": 50.0971967,
    "tags": {
        "amenity": "fast_food",
        "name": "ZCafe Serbian Grill",
        "opening_hours": "Mo-Su 09:00-23:00",
        "phone": "+7 987 9096777"
    }
}
,
{
    "lat": 53.1791487,
    "lon": 50.1927001,
    "tags": {
        "amenity": "car_wash",
        "name": "Олви"
    }
}
,
{
    "lat": 53.345437,
    "lon": 50.2210771,
    "tags": {
        "amenity": "cafe",
        "name": "Сказка"
    }
}
,
{
    "lat": 53.2104544,
    "lon": 50.1774966,
    "tags": {
        "amenity": "car_wash"
    }
}
,
{
    "lat": 53.1993573,
    "lon": 50.1791049,
    "tags": {
        "amenity": "bank",
        "name": "Сбербанк Доп.офис №6991/0701"
    }
}
,
{
    "lat": 53.2004852,
    "lon": 50.1665274,
    "tags": {
        "amenity": "fast_food",
        "name": "Роллы"
    }
}
,
{
    "lat": 53.2071219,
    "lon": 50.1237475,
    "tags": {
        "amenity": "waste_basket"
    }
}
,
{
    "lat": 53.2060906,
    "lon": 50.1239742,
    "tags": {
        "amenity": "waste_basket"
    }
}
,
{
    "lat": 53.2018557,
    "lon": 50.1286454,
    "tags": {
        "amenity": "doctors",
        "name": "ПП"
    }
}
,
{
    "lat": 53.202478,
    "lon": 50.1279032,
    "tags": {
        "amenity": "doctors",
        "name": "ПП"
    }
}
,
{
    "lat": 53.2523633,
    "lon": 50.2089271,
    "tags": {
        "amenity": "bank",
        "name": "Сбербанк: Доп.офис №6991/0313"
    }
}
,
{
    "lat": 53.2712758,
    "lon": 50.1866835,
    "tags": {
        "amenity": "hospital",
        "name": "Санаторий имени Чкалова"
    }
}
,
{
    "lat": 53.2782902,
    "lon": 50.1858612,
    "tags": {
        "amenity": "ferry_terminal",
        "name": "Поляна имени Фрунзе"
    }
}
,
{
    "lat": 53.2582733,
    "lon": 50.2221765,
    "tags": {
        "amenity": "clinic",
        "name": "Педиатрическое отделение городской поликлиники № 1"
    }
}
,
{
    "lat": 53.5063138,
    "lon": 50.1299404,
    "tags": {
        "amenity": "fuel",
        "name": "Роснефть",
        "website": "https://www.rosneft.ru/"
    }
}
,
{
    "lat": 53.1881181,
    "lon": 50.1991953,
    "tags": {
        "amenity": "post_office"
    }
}
,
{
    "lat": 53.2101267,
    "lon": 50.204126,
    "tags": {
        "amenity": "kindergarten",
        "name": "Капитошка"
    }
}
,
{
    "lat": 53.2066184,
    "lon": 50.2046438,
    "tags": {
        "amenity": "restaurant",
        "name": "Шёлк",
        "opening_hours": "Mo-Su 12:00-24:00",
        "phone": "+7 846 3425159",
        "website": "https://shelk-samara.ru/"
    }
}
,
{
    "lat": 53.2100535,
    "lon": 50.2120433,
    "tags": {
        "amenity": "fuel"
    }
}
,
{
    "lat": 53.2430394,
    "lon": 50.2296198,
    "tags": {
        "amenity": "pharmacy"
    }
}
,
{
    "lat": 53.249575,
    "lon": 50.2233397,
    "tags": {
        "amenity": "bank",
        "name": "Офис Сбербанка",
        "opening_hours": "Mo-Sa 10:00-19:00"
    }
}
